country,location_name,latitude,longitude,timezone,last_updated_epoch,last_updated,temperature_celsius,condition_text,wind_kph,wind_degree,wind_direction,pressure_mb,precip_mm,precip_in,humidity,cloud,feels_like_celsius,visibility_km,uv_index,gust_kph,air_quality_carbon_monoxide,air_quality_ozone,air_quality_nitrogen_dioxide,air_quality_sulphur_dioxide,air_quality_pm2.5,air_quality_pm10,air_quality_us-epa-index,air_quality_gb-defra-index,moon_phase,moon_illumination,temp_diff,pollution_level
Afghanistan,Kabul,34.52,69.18,Asia/Kabul,1715849100.0,2024-05-16 13:15:00,26.6,Partly Cloudy,13.3,338.0,NNW,1012.0,0.0,0.0,24.0,30.0,25.3,10.0,7.0,15.3,277.0,103.0,1.1,0.2,8.4,26.6,1.0,1.0,Waxing Gibbous,55.0,-1.3000000000000007,Good
Albania,Tirana,41.33,19.82,Europe/Tirane,1715849100.0,2024-05-16 10:45:00,19.0,Partly cloudy,11.2,320.0,NW,1012.0,0.1,0.0,94.0,75.0,19.0,10.0,5.0,18.4,193.6,97.3,0.9,0.1,1.1,2.0,1.0,1.0,Waxing Gibbous,55.0,0.0,Good
Algeria,Algiers,36.76,3.05,Africa/Algiers,1715849100.0,2024-05-16 09:45:00,23.0,Sunny,15.1,280.0,W,1011.0,0.0,0.0,29.0,0.0,24.6,10.0,5.0,22.3,540.7,12.2,65.1,13.4,10.4,18.4,1.0,1.0,Waxing Gibbous,55.0,1.6000000000000014,Good
Andorra,Andorra La Vella,42.5,1.52,Europe/Andorra,1715849100.0,2024-05-16 10:45:00,6.3,Light drizzle,11.9,215.0,SW,1007.0,0.3,0.01,61.0,100.0,3.8,2.0,2.0,13.7,170.2,64.4,1.6,0.2,0.7,0.9,1.0,1.0,Waxing Gibbous,55.0,-2.5,Good
Angola,Luanda,-8.84,13.23,Africa/Luanda,1715849100.0,2024-05-16 09:45:00,26.0,Partly cloudy,13.0,150.0,SSE,1011.0,0.0,0.0,89.0,50.0,28.7,10.0,8.0,20.2,2964.0,19.0,72.7,31.5,183.4,262.3,5.0,10.0,Waxing Gibbous,55.0,2.6999999999999993,Unhealthy
Antigua and Barbuda,Saint John's,17.12,-61.85,America/Antigua,1715849100.0,2024-05-16 04:45:00,26.0,Partly cloudy,9.0,90.0,E,1013.0,0.02,0.0,84.0,25.0,28.2,10.0,1.0,25.3,220.3,29.0,0.2,0.2,1.2,4.5,1.0,1.0,Waxing Gibbous,55.0,2.1999999999999993,Good
Argentina,Buenos Aires,-34.59,-58.67,America/Argentina/Buenos_Aires,1715849100.0,2024-05-16 05:45:00,8.0,Clear,3.6,10.0,N,1014.0,0.0,0.0,93.0,0.0,7.1,10.0,1.0,10.5,270.4,7.7,8.3,1.3,4.0,5.3,1.0,1.0,Waxing Gibbous,55.0,-0.9000000000000004,Good
Armenia,Yerevan,40.18,44.51,Asia/Yerevan,1715849100.0,2024-05-16 12:45:00,19.0,Partly cloudy,6.8,140.0,SE,1017.0,0.13,0.01,40.0,25.0,19.0,10.0,4.0,9.9,186.9,103.0,1.0,0.3,0.8,0.9,1.0,1.0,Waxing Gibbous,55.0,0.0,Good
Australia,Canberra,-35.28,149.22,Australia/Sydney,1715849100.0,2024-05-16 18:45:00,9.0,Clear,4.0,100.0,E,1027.0,0.0,0.0,87.0,0.0,9.1,10.0,1.0,5.3,277.0,26.8,15.1,1.0,3.7,5.4,1.0,1.0,Waxing Gibbous,55.0,0.09999999999999964,Good
Austria,Vienna,48.2,16.37,Europe/Vienna,1715849100.0,2024-05-16 10:45:00,16.0,Partly cloudy,20.2,110.0,ESE,1013.0,0.0,0.0,63.0,75.0,16.0,10.0,5.0,31.9,220.3,68.7,5.1,4.1,3.7,4.4,1.0,1.0,Waxing Gibbous,55.0,0.0,Good
Azerbaijan,Baku,40.4,49.88,Asia/Baku,1715849100.0,2024-05-16 12:45:00,17.0,Partly cloudy,6.8,20.0,NNE,1020.0,0.0,0.0,68.0,50.0,17.0,10.0,5.0,7.4,227.0,81.5,7.1,1.8,1.9,2.2,1.0,1.0,Waxing Gibbous,55.0,0.0,Good
Bahamas,Nassau,25.08,-77.35,America/Nassau,1715849100.0,2024-05-16 04:45:00,27.0,Partly cloudy,25.9,180.0,S,1012.0,0.0,0.0,89.0,50.0,31.1,10.0,1.0,39.0,330.5,59.4,1.2,1.5,12.2,24.6,1.0,2.0,Waxing Gibbous,55.0,4.100000000000001,Good
Bahrain,Manama,26.24,50.58,Asia/Bahrain,1715849100.0,2024-05-16 11:45:00,36.0,Sunny,22.0,140.0,SE,1007.0,0.0,0.0,33.0,0.0,45.4,10.0,8.0,29.2,397.2,100.1,18.5,9.7,39.0,114.3,2.0,4.0,Waxing Gibbous,55.0,9.399999999999999,Good
Bangladesh,Dhaka,23.72,90.41,Asia/Dhaka,1715849100.0,2024-05-16 14:45:00,38.4,Partly Cloudy,6.8,222.0,SW,1006.0,0.0,0.0,31.0,30.0,41.3,10.0,9.0,7.9,520.7,188.8,8.7,4.7,49.7,57.0,3.0,6.0,Waxing Gibbous,55.0,2.8999999999999986,Moderate
Barbados,Bridgetown,13.1,-59.62,America/Barbados,1715849100.0,2024-05-16 04:45:00,28.0,Partly cloudy,25.9,90.0,E,1012.0,0.0,0.0,74.0,50.0,31.9,10.0,1.0,31.8,257.0,21.1,1.0,0.9,1.9,8.2,1.0,1.0,Waxing Gibbous,55.0,3.8999999999999986,Good
Belarus,Minsk,53.9,27.57,Europe/Minsk,1715849100.0,2024-05-16 11:45:00,17.0,Sunny,19.1,150.0,SSE,1027.0,0.0,0.0,29.0,0.0,17.0,10.0,4.0,26.3,201.9,88.7,1.4,2.1,1.6,1.7,1.0,1.0,Waxing Gibbous,55.0,0.0,Good
Belgium,Brussels,50.83,4.33,Europe/Brussels,1715849100.0,2024-05-16 10:45:00,15.0,Partly cloudy,6.1,240.0,WSW,1003.0,0.25,0.01,94.0,50.0,14.6,10.0,3.0,14.2,277.0,11.2,22.3,3.4,14.7,15.8,1.0,2.0,Waxing Gibbous,55.0,-0.40000000000000036,Good
Belize,Belmopan,17.25,-88.77,America/Belize,1715849100.0,2024-05-16 02:45:00,26.0,Overcast,6.8,99.0,E,1007.0,0.0,0.0,89.0,94.0,29.6,10.0,1.0,10.4,307.1,34.0,0.3,0.2,7.7,32.1,1.0,1.0,Waxing Gibbous,55.0,3.6000000000000014,Good
Benin,Porto-Novo,6.48,2.62,Africa/Porto-Novo,1715849100.0,2024-05-16 09:45:00,28.0,Moderate or heavy rain with thunder,24.1,210.0,SSW,1012.0,0.02,0.0,79.0,75.0,31.2,10.0,7.0,31.3,587.5,14.5,4.5,2.2,8.2,15.7,1.0,1.0,Waxing Gibbous,55.0,3.1999999999999993,Good
Bhutan,Thimphu,27.48,89.6,Asia/Thimphu,1715849100.0,2024-05-16 14:45:00,18.2,Patchy light rain in area with thunder,11.5,142.0,SE,1012.0,0.16,0.01,50.0,77.0,18.2,10.0,4.0,13.9,280.4,69.4,0.2,0.7,9.3,11.5,1.0,1.0,Waxing Gibbous,55.0,0.0,Good
Bolivia,Sucre,-19.04,-65.26,America/La_Paz,1715849100.0,2024-05-16 04:45:00,12.3,Clear,3.6,3.0,N,1010.0,0.0,0.0,77.0,10.0,12.3,10.0,1.0,4.9,212.0,26.5,2.1,0.5,4.6,9.1,1.0,1.0,Waxing Gibbous,55.0,0.0,Good
Bosnia and Herzegovina,Sarajevo,43.85,18.38,Europe/Sarajevo,1715849100.0,2024-05-16 10:45:00,19.0,Partly cloudy,3.6,194.0,SSW,1012.0,0.0,0.0,64.0,25.0,19.0,10.0,5.0,11.2,178.6,70.1,1.1,2.8,2.7,5.3,1.0,1.0,Waxing Gibbous,55.0,0.0,Good
Botswana,Gaborone,-24.65,25.91,Africa/Gaborone,1715849100.0,2024-05-16 10:45:00,22.0,Sunny,6.8,120.0,ESE,1028.0,0.0,0.0,43.0,0.0,22.6,10.0,7.0,13.2,433.9,47.2,7.3,3.9,16.4,24.8,2.0,2.0,Waxing Gibbous,55.0,0.6000000000000014,Good
Brazil,Bras,-2.08,-58.17,America/Manaus,1715849100.0,2024-05-16 04:45:00,23.1,Fog,4.0,62.0,ENE,1009.0,0.04,0.0,98.0,100.0,25.7,0.0,1.0,8.0,168.6,1.0,0.2,0.1,0.5,0.5,1.0,1.0,Waxing Gibbous,55.0,2.599999999999998,Good
Brunei Darussalam,Bandar Seri Begawan,4.88,114.93,Asia/Brunei,1715849100.0,2024-05-16 16:45:00,32.0,Patchy light rain with thunder,11.2,310.0,NW,1006.0,0.0,0.0,84.0,75.0,39.5,10.0,8.0,18.4,323.8,27.2,1.8,0.4,2.2,2.3,1.0,1.0,Waxing Gibbous,55.0,7.5,Good
Bulgaria,Sofia,42.68,23.32,Europe/Sofia,1715849100.0,2024-05-16 11:45:00,12.0,Overcast,20.2,110.0,ESE,1021.0,0.0,0.0,77.0,100.0,10.9,10.0,3.0,27.4,233.7,57.2,4.5,0.6,3.5,4.8,1.0,1.0,Waxing Gibbous,55.0,-1.0999999999999996,Good
Burkina Faso,Ouagadougou,12.37,-1.52,Africa/Ouagadougou,1715849100.0,2024-05-16 08:45:00,32.0,Moderate or heavy rain with thunder,11.2,230.0,SW,1011.0,0.0,0.0,67.0,50.0,34.2,10.0,8.0,22.0,474.0,21.6,1.7,1.0,5.4,13.9,1.0,1.0,Waxing Gibbous,55.0,2.200000000000003,Good
Burundi,Bujumbura,-3.38,29.36,Africa/Bujumbura,1715849100.0,2024-05-16 10:45:00,21.1,Patchy rain nearby,3.6,357.0,N,1016.0,0.02,0.0,66.0,86.0,21.1,10.0,6.0,6.4,687.6,67.2,2.1,2.0,33.3,80.9,2.0,3.0,Waxing Gibbous,55.0,0.0,Good
Madagascar,Ivory,-24.37,46.45,Indian/Antananarivo,1715849100.0,2024-05-16 11:45:00,27.4,Sunny,16.2,55.0,NE,1020.0,0.0,0.0,44.0,5.0,27.6,10.0,8.0,18.6,212.0,39.0,0.0,0.0,0.5,0.8,1.0,1.0,Waxing Gibbous,55.0,0.20000000000000284,Good
Cape Verde,Praia,14.93,-23.51,Atlantic/Cape_Verde,1715849100.0,2024-05-16 07:45:00,22.0,Partly cloudy,15.1,20.0,NNE,1014.0,0.0,0.0,69.0,75.0,24.5,10.0,6.0,18.1,181.9,45.8,0.6,0.1,6.1,23.2,1.0,1.0,Waxing Gibbous,55.0,2.5,Good
Cambodia,Phnom Penh,11.55,104.92,Asia/Phnom_Penh,1715849100.0,2024-05-16 15:45:00,38.0,Partly cloudy,11.2,160.0,SSE,1005.0,0.0,0.0,45.0,50.0,42.4,10.0,9.0,15.7,1295.1,46.5,14.9,10.0,17.1,23.0,2.0,2.0,Waxing Gibbous,55.0,4.399999999999999,Good
Cameroon,Yaounde,3.87,11.52,Africa/Douala,1715849100.0,2024-05-16 09:45:00,25.0,Partly Cloudy,3.6,55.0,NE,1014.0,0.0,0.0,78.0,25.0,27.0,10.0,6.0,4.1,727.7,12.9,4.9,1.2,25.6,31.2,2.0,3.0,Waxing Gibbous,55.0,2.0,Good
Canada,Ottawa,45.42,-75.7,America/Toronto,1715849100.0,2024-05-16 04:45:00,12.0,Partly cloudy,15.1,10.0,N,1011.0,0.0,0.0,71.0,50.0,11.1,24.0,1.0,18.4,193.6,15.0,1.8,0.2,5.0,5.5,1.0,1.0,Waxing Gibbous,55.0,-0.9000000000000004,Good
Central African Republic,Bangui,4.37,18.58,Africa/Bangui,1715849100.0,2024-05-16 09:45:00,28.4,Sunny,7.6,155.0,SSE,1013.0,0.0,0.0,60.0,7.0,30.3,10.0,7.0,8.7,217.0,0.6,0.1,0.0,0.5,0.7,1.0,1.0,Waxing Gibbous,55.0,1.9000000000000021,Good
Chad,N'djamena,12.11,15.05,Africa/Douala,1715849100.0,2024-05-16 09:45:00,37.2,Sunny,14.4,150.0,SSE,1010.0,0.0,0.0,27.0,2.0,37.9,10.0,9.0,16.6,480.7,37.2,1.0,0.9,13.6,38.8,1.0,2.0,Waxing Gibbous,55.0,0.6999999999999957,Good
Chile,Santiago,-33.45,-70.67,America/Santiago,1715849100.0,2024-05-16 04:45:00,1.0,Clear,6.8,50.0,NE,1019.0,0.0,0.0,93.0,0.0,0.3,7.0,1.0,14.0,2723.7,0.0,41.8,24.8,211.1,268.6,5.0,10.0,Waxing Gibbous,55.0,-0.7,Unhealthy
China,Beijing,39.93,116.39,Asia/Shanghai,1715849100.0,2024-05-16 16:45:00,29.0,Sunny,15.1,180.0,S,1001.0,0.0,0.0,22.0,0.0,26.9,10.0,8.0,22.3,1335.1,85.1,101.5,223.2,84.9,107.8,4.0,10.0,Waxing Gibbous,55.0,-2.1000000000000014,Moderate
Bulgaria,Bogot,43.32,24.7,Europe/Sofia,1715849100.0,2024-05-16 11:45:00,15.9,Overcast,14.0,110.0,ESE,1020.0,0.0,0.0,62.0,100.0,15.9,10.0,4.0,16.8,212.0,64.4,1.2,0.2,3.0,3.2,1.0,1.0,Waxing Gibbous,55.0,0.0,Good
Comoros,Moroni,-11.7,43.24,Indian/Comoro,1715849100.0,2024-05-16 11:45:00,27.5,Patchy rain nearby,23.4,161.0,SSE,1015.0,0.1,0.0,73.0,70.0,30.4,10.0,7.0,26.9,257.0,37.6,0.2,0.1,1.5,2.7,1.0,1.0,Waxing Gibbous,55.0,2.8999999999999986,Good
Congo,Brazzaville,-4.26,15.28,Africa/Brazzaville,1715849100.0,2024-05-16 09:45:00,29.6,Sunny,4.3,49.0,NE,1012.0,0.0,0.0,66.0,14.0,33.3,10.0,8.0,5.0,694.3,5.2,11.8,2.6,17.3,72.7,2.0,2.0,Waxing Gibbous,55.0,3.6999999999999957,Good
Costa Rica,San Juan,9.97,-84.08,America/Costa_Rica,1715849100.0,2024-05-16 02:45:00,21.0,Fog,3.6,10.0,N,1016.0,0.17,0.01,100.0,75.0,21.0,7.0,1.0,6.0,1161.6,0.0,10.9,6.6,21.7,23.3,2.0,2.0,Waxing Gibbous,55.0,0.0,Good
Croatia,Zagreb,45.8,16.0,Europe/Zagreb,1715849100.0,2024-05-16 10:45:00,16.0,Partly cloudy,15.1,70.0,ENE,1012.0,0.0,0.0,82.0,75.0,16.0,10.0,3.0,22.3,227.0,29.7,8.8,1.6,6.6,7.7,1.0,1.0,Waxing Gibbous,55.0,0.0,Good
Cuba,Havana,23.13,-82.36,America/Havana,1715849100.0,2024-05-16 04:45:00,26.0,Clear,6.8,190.0,S,1012.0,0.0,0.0,84.0,0.0,28.7,9.0,1.0,20.8,317.1,32.9,5.9,15.1,4.7,18.4,1.0,1.0,Waxing Gibbous,55.0,2.6999999999999993,Good
Cyprus,Nicosia,35.17,33.37,Asia/Famagusta,1715849100.0,2024-05-16 11:45:00,25.0,Partly cloudy,9.0,330.0,NNW,1018.0,0.0,0.0,39.0,25.0,25.1,10.0,7.0,16.2,195.3,118.7,0.4,1.5,7.7,13.5,1.0,1.0,Waxing Gibbous,55.0,0.10000000000000142,Good
Czech Republic,Prague,50.08,14.47,Europe/Prague,1715849100.0,2024-05-16 10:45:00,18.0,Sunny,31.0,110.0,ESE,1011.0,0.0,0.0,49.0,0.0,18.0,10.0,4.0,37.7,205.3,80.8,2.9,2.0,3.4,3.9,1.0,1.0,Waxing Gibbous,55.0,0.0,Good
Democratic Republic of Congo,Kinshasa,-4.3,15.3,Africa/Brazzaville,1715849100.0,2024-05-16 09:45:00,29.4,Sunny,4.0,50.0,NE,1012.0,0.0,0.0,67.0,15.0,33.2,10.0,8.0,4.6,694.3,5.2,11.8,2.6,17.3,72.7,2.0,2.0,Waxing Gibbous,55.0,3.8000000000000043,Good
Denmark,Copenhagen,55.67,12.58,Europe/Copenhagen,1715849100.0,2024-05-16 10:45:00,16.0,Sunny,31.0,100.0,E,1017.0,0.0,0.0,55.0,0.0,16.0,10.0,4.0,46.2,230.3,85.1,4.8,4.2,5.8,6.9,1.0,1.0,Waxing Gibbous,55.0,0.0,Good
Djibouti,Djibouti,11.6,43.15,Africa/Djibouti,1715849100.0,2024-05-16 11:45:00,31.8,Sunny,13.0,73.0,ENE,1010.0,0.0,0.0,68.0,6.0,39.2,10.0,8.0,14.9,267.0,65.1,2.0,3.6,9.5,25.1,1.0,1.0,Waxing Gibbous,55.0,7.400000000000002,Good
Dominica,Roseau,15.3,-61.4,America/Dominica,1715849100.0,2024-05-16 04:45:00,27.2,Patchy rain nearby,12.6,71.0,ENE,1013.0,0.03,0.0,78.0,70.0,30.4,10.0,1.0,17.0,203.6,19.5,0.5,0.2,0.9,2.7,1.0,1.0,Waxing Gibbous,55.0,3.1999999999999993,Good
Dominican Republic,Santo Domingo,18.47,-69.9,America/Santo_Domingo,1715849100.0,2024-05-16 04:45:00,23.0,Partly cloudy,13.0,70.0,ENE,1014.0,0.0,0.0,94.0,50.0,25.3,10.0,1.0,20.2,387.2,0.5,14.4,4.5,7.0,12.6,1.0,1.0,Waxing Gibbous,55.0,2.3000000000000007,Good
Ecuador,Quito,-0.22,-78.5,America/Guayaquil,1715849100.0,2024-05-16 03:45:00,11.9,Patchy rain nearby,4.3,144.0,SE,1016.0,0.03,0.0,92.0,76.0,12.1,10.0,1.0,6.2,2403.3,0.0,72.7,52.0,26.3,28.9,2.0,3.0,Waxing Gibbous,55.0,0.1999999999999993,Good
Egypt,Cairo,30.05,31.25,Africa/Cairo,1715849100.0,2024-05-16 11:45:00,27.0,Sunny,15.1,30.0,NNE,1019.0,0.0,0.0,32.0,0.0,25.7,10.0,7.0,19.9,217.0,127.3,6.9,13.4,11.7,33.3,1.0,1.0,Waxing Gibbous,55.0,-1.3000000000000007,Good
El Salvador,San Salvador,13.71,-89.2,America/El_Salvador,1715849100.0,2024-05-16 02:45:00,26.0,Moderate or heavy rain with thunder,3.6,182.0,S,1010.0,0.3,0.01,94.0,50.0,30.2,10.0,1.0,4.6,460.6,5.9,7.7,7.5,20.4,28.1,2.0,2.0,Waxing Gibbous,55.0,4.199999999999999,Good
Equatorial Guinea,Malabo,3.75,8.78,Africa/Malabo,1715849100.0,2024-05-16 09:45:00,30.0,Partly cloudy,6.1,110.0,ESE,1012.0,0.2,0.01,89.0,50.0,35.7,10.0,6.0,13.3,320.4,25.4,0.6,0.6,2.1,3.0,1.0,1.0,Waxing Gibbous,55.0,5.700000000000003,Good
Eritrea,Asmara,15.33,38.93,Africa/Asmara,1715849100.0,2024-05-16 11:45:00,22.6,Patchy rain nearby,4.7,24.0,NNE,1015.0,0.15,0.01,42.0,80.0,24.3,10.0,5.0,7.6,250.3,52.2,0.1,0.5,13.9,54.0,1.0,2.0,Waxing Gibbous,55.0,1.6999999999999993,Good
Estonia,Tallinn,59.43,24.73,Europe/Tallinn,1715849100.0,2024-05-16 11:45:00,19.0,Sunny,22.0,300.0,WNW,1024.0,0.0,0.0,43.0,0.0,19.0,10.0,4.0,32.7,217.0,88.7,4.6,1.7,7.3,7.6,1.0,1.0,Waxing Gibbous,55.0,0.0,Good
Swaziland,Mbabane,-26.32,31.13,Africa/Mbabane,1715849100.0,2024-05-16 10:45:00,22.2,Sunny,6.1,127.0,SE,1025.0,0.0,0.0,39.0,2.0,24.0,10.0,7.0,7.1,297.1,44.0,1.1,2.1,22.0,29.2,2.0,2.0,Waxing Gibbous,55.0,1.8000000000000007,Good
Ethiopia,Addis Ababa,9.03,38.7,Africa/Addis_Ababa,1715849100.0,2024-05-16 11:45:00,22.3,Patchy rain nearby,10.8,126.0,SE,1016.0,0.05,0.0,48.0,72.0,24.4,10.0,5.0,12.6,250.3,56.5,0.1,0.4,12.0,66.2,1.0,2.0,Waxing Gibbous,55.0,2.099999999999998,Good
Fiji Islands,Suva,-18.13,178.42,Pacific/Fiji,1715849100.0,2024-05-16 20:45:00,26.0,Light rain,15.1,100.0,E,1012.0,0.0,0.0,89.0,75.0,29.5,10.0,1.0,22.3,213.6,14.0,2.1,1.7,2.6,3.4,1.0,1.0,Waxing Gibbous,55.0,3.5,Good
Finland,Helsinki,60.18,24.93,Europe/Helsinki,1715849100.0,2024-05-16 11:45:00,22.0,Sunny,24.1,280.0,W,1022.0,0.0,0.0,33.0,0.0,24.2,10.0,5.0,36.2,208.6,89.4,2.1,1.3,5.5,6.8,1.0,1.0,Waxing Gibbous,55.0,2.1999999999999993,Good
France,Paris,48.87,2.33,Europe/Paris,1715849100.0,2024-05-16 10:45:00,15.0,Partly cloudy,16.9,240.0,WSW,1006.0,0.01,0.0,72.0,50.0,14.8,10.0,4.0,24.1,397.2,11.8,20.7,3.6,9.8,13.6,1.0,1.0,Waxing Gibbous,55.0,-0.1999999999999993,Good
Gabon,Libreville,0.38,9.45,Africa/Libreville,1715849100.0,2024-05-16 09:45:00,29.0,Partly cloudy,15.1,170.0,S,1012.0,0.0,0.0,75.0,25.0,34.6,10.0,7.0,22.3,1094.8,5.3,15.6,16.5,41.0,49.2,3.0,4.0,Waxing Gibbous,55.0,5.600000000000001,Moderate
Gambia,Banjul,13.45,-16.58,Africa/Banjul,1715849100.0,2024-05-16 08:45:00,23.0,Sunny,16.9,290.0,WNW,1012.0,0.0,0.0,83.0,0.0,25.1,10.0,6.0,19.2,195.3,65.1,0.9,1.9,12.9,59.6,1.0,2.0,Waxing Gibbous,55.0,2.1000000000000014,Good
Georgia,Tbilisi,41.73,44.79,Asia/Tbilisi,1715849100.0,2024-05-16 12:45:00,16.0,Overcast,9.0,140.0,SE,1020.0,0.02,0.0,68.0,100.0,16.0,10.0,3.0,16.2,208.6,65.1,1.7,0.5,2.0,2.4,1.0,1.0,Waxing Gibbous,55.0,0.0,Good
Germany,Berlin,52.52,13.4,Europe/Berlin,1715849100.0,2024-05-16 10:45:00,22.0,Sunny,33.1,120.0,ESE,1011.0,0.0,0.0,38.0,0.0,23.9,10.0,6.0,40.3,223.6,86.6,4.0,5.0,6.6,7.5,1.0,1.0,Waxing Gibbous,55.0,1.8999999999999986,Good
Ghana,Accra,5.55,-0.22,Africa/Accra,1715849100.0,2024-05-16 08:45:00,29.0,Partly cloudy,9.0,280.0,W,1012.0,0.0,0.0,84.0,25.0,34.5,10.0,7.0,18.2,407.2,11.4,4.5,3.1,19.2,32.0,2.0,2.0,Waxing Gibbous,55.0,5.5,Good
Greece,Athens,37.98,23.72,Europe/Athens,1715849100.0,2024-05-16 11:45:00,23.0,Partly cloudy,3.6,221.0,SW,1020.0,0.0,0.0,38.0,25.0,24.6,10.0,6.0,7.5,230.3,105.9,12.5,18.1,8.7,10.2,1.0,1.0,Waxing Gibbous,55.0,1.6000000000000014,Good
Grenada,Saint George's,12.05,-61.75,America/Grenada,1715849100.0,2024-05-16 04:45:00,28.0,Partly cloudy,22.0,110.0,ESE,1011.0,0.06,0.0,79.0,25.0,32.6,10.0,1.0,29.2,243.7,20.2,0.8,0.7,2.4,12.0,1.0,1.0,Waxing Gibbous,55.0,4.600000000000001,Good
Guatemala,Guatemala City,14.62,-90.53,America/Guatemala,1715849100.0,2024-05-16 02:45:00,20.0,Mist,22.0,190.0,S,1019.0,0.09,0.0,88.0,100.0,20.0,5.0,1.0,29.2,2243.0,0.4,35.0,19.3,132.0,178.1,4.0,10.0,Waxing Gibbous,55.0,0.0,Moderate
Guinea,Conakry,9.51,-13.71,Africa/Conakry,1715849100.0,2024-05-16 08:45:00,26.0,Overcast,3.6,342.0,NNW,1012.0,0.01,0.0,94.0,100.0,29.0,10.0,6.0,19.8,774.4,14.7,8.1,2.9,16.7,28.0,2.0,2.0,Waxing Gibbous,55.0,3.0,Good
Guinea-Bissau,Bissau,11.85,-15.58,Africa/Bissau,1715849100.0,2024-05-16 08:45:00,24.0,Partly cloudy,6.1,10.0,N,1013.0,0.0,0.0,89.0,75.0,25.7,8.0,7.0,11.6,176.9,50.1,0.4,0.2,15.8,55.6,2.0,2.0,Waxing Gibbous,55.0,1.6999999999999993,Good
Guyana,Georgetown,6.8,-58.17,America/Guyana,1715849100.0,2024-05-16 04:45:00,24.0,Partly cloudy,3.6,94.0,E,1011.0,0.08,0.0,100.0,50.0,26.4,8.0,1.0,10.5,210.3,20.6,2.9,2.9,1.1,1.6,1.0,1.0,Waxing Gibbous,55.0,2.3999999999999986,Good
Haiti,Port-Au-Prince,18.54,-72.34,America/Port-au-Prince,1715849100.0,2024-05-16 04:45:00,21.0,Clear,4.0,133.0,SE,1014.0,0.0,0.0,88.0,18.0,21.0,10.0,1.0,8.1,674.3,65.1,9.9,7.2,10.7,20.7,1.0,1.0,Waxing Gibbous,55.0,0.0,Good
Vatican City,Vatican City,41.9,12.45,Europe/Rome,1715849100.0,2024-05-16 10:45:00,24.0,Sunny,3.6,178.0,S,1006.0,0.0,0.0,57.0,0.0,25.1,10.0,7.0,14.1,574.1,62.2,26.1,2.4,41.8,47.0,3.0,4.0,Waxing Gibbous,55.0,1.1000000000000014,Moderate
Honduras,Tegucigalpa,14.1,-87.22,America/Tegucigalpa,1715849100.0,2024-05-16 02:45:00,23.0,Partly cloudy,6.1,240.0,WSW,1017.0,0.28,0.01,78.0,37.0,25.3,10.0,1.0,11.2,377.2,23.3,3.7,1.4,19.0,25.3,2.0,2.0,Waxing Gibbous,55.0,2.3000000000000007,Good
Hungary,Budapest,47.5,19.08,Europe/Budapest,1715849100.0,2024-05-16 10:45:00,20.0,Partly cloudy,29.9,120.0,ESE,1017.0,0.0,0.0,43.0,75.0,20.0,10.0,4.0,37.1,212.0,74.4,3.4,2.6,5.4,6.4,1.0,1.0,Waxing Gibbous,55.0,0.0,Good
Iceland,Grindavik,63.83,-22.43,Atlantic/Reykjavik,1715849100.0,2024-05-16 08:45:00,7.0,Partly cloudy,15.1,150.0,SSE,1013.0,0.29,0.01,93.0,75.0,6.9,10.0,2.0,22.3,200.3,80.8,0.6,0.3,0.5,0.5,1.0,1.0,Waxing Gibbous,55.0,-0.09999999999999964,Good
India,New Delhi,28.6,77.2,Asia/Kolkata,1715849100.0,2024-05-16 14:15:00,42.0,Mist,11.2,330.0,NNW,1008.0,0.0,0.0,13.0,0.0,43.0,4.0,10.0,18.4,307.1,144.5,3.0,6.1,25.4,64.0,2.0,3.0,Waxing Gibbous,55.0,1.0,Good
Indonesia,Jakarta,-6.21,106.85,Asia/Jakarta,1715849100.0,2024-05-16 15:45:00,32.0,Partly cloudy,24.1,60.0,ENE,1007.0,0.02,0.0,63.0,50.0,38.2,8.0,8.0,31.3,3471.4,303.3,52.1,40.1,196.1,224.0,5.0,10.0,Waxing Gibbous,55.0,6.200000000000003,Unhealthy
Iran,Tehran,35.73,51.33,Asia/Tehran,1715849100.0,2024-05-16 12:15:00,24.0,Partly cloudy,19.1,320.0,NW,1018.0,0.0,0.0,25.0,25.0,23.2,10.0,6.0,23.2,1041.4,46.5,145.3,101.1,34.4,48.5,2.0,3.0,Waxing Gibbous,55.0,-0.8000000000000007,Good
Iraq,Baghdad,33.34,44.39,Asia/Baghdad,1715849100.0,2024-05-16 11:45:00,33.0,Partly cloudy,22.0,10.0,N,1012.0,0.0,0.0,17.0,50.0,30.9,10.0,8.0,27.3,403.9,161.7,25.0,34.8,13.5,37.1,1.0,2.0,Waxing Gibbous,55.0,-2.1000000000000014,Good
Ireland,Dublin,53.33,-6.25,Europe/Dublin,1715849100.0,2024-05-16 09:45:00,14.0,Mist,6.8,30.0,NNE,1007.0,0.0,0.0,94.0,75.0,13.3,5.0,5.0,12.4,243.7,11.1,14.1,11.2,8.4,9.8,1.0,1.0,Waxing Gibbous,55.0,-0.6999999999999993,Good
Israel,Jerusalem,31.78,35.23,Asia/Jerusalem,1715849100.0,2024-05-16 11:45:00,25.0,Partly cloudy,13.0,290.0,WNW,1018.0,0.0,0.0,54.0,25.0,25.0,10.0,6.0,15.7,186.9,134.5,1.6,1.3,5.0,9.4,1.0,1.0,Waxing Gibbous,55.0,0.0,Good
Italy,Rome,41.9,12.48,Europe/Rome,1715849100.0,2024-05-16 10:45:00,24.0,Sunny,3.6,178.0,S,1006.0,0.0,0.0,57.0,0.0,25.1,10.0,7.0,14.1,574.1,62.2,26.1,2.4,41.8,47.0,3.0,4.0,Waxing Gibbous,55.0,1.1000000000000014,Moderate
Jamaica,Norman Gardens,17.97,-76.75,America/Jamaica,1715849100.0,2024-05-16 03:45:00,21.9,Patchy rain nearby,3.6,62.0,ENE,1013.0,0.1,0.0,84.0,84.0,21.9,10.0,1.0,4.4,707.6,0.2,12.2,12.3,10.1,20.8,1.0,1.0,Waxing Gibbous,55.0,0.0,Good
Japan,Tokyo,35.69,139.69,Asia/Tokyo,1715849100.0,2024-05-16 17:45:00,24.0,Partly cloudy,33.1,200.0,SSW,1001.0,0.0,0.0,47.0,25.0,25.3,10.0,6.0,52.2,317.1,100.1,31.2,17.9,15.8,18.4,2.0,2.0,Waxing Gibbous,55.0,1.3000000000000007,Good
Jordan,Amman,31.95,35.93,Asia/Amman,1715849100.0,2024-05-16 11:45:00,23.0,Mist,15.1,290.0,WNW,1020.0,0.0,0.0,29.0,0.0,23.4,5.0,6.0,17.8,180.2,120.2,1.9,3.5,4.5,9.1,1.0,1.0,Waxing Gibbous,55.0,0.3999999999999986,Good
Kazakhstan,Astana,51.18,71.43,Asia/Almaty,1715849100.0,2024-05-16 13:45:00,16.0,Sunny,22.0,90.0,E,1022.0,0.0,0.0,34.0,0.0,16.0,10.0,5.0,29.2,213.6,77.3,3.3,14.3,1.9,2.1,1.0,1.0,Waxing Gibbous,55.0,0.0,Good
Kenya,Nairobi,-1.28,36.82,Africa/Nairobi,1715849100.0,2024-05-16 11:45:00,23.0,Partly cloudy,3.6,10.0,N,1025.0,0.06,0.0,61.0,75.0,25.0,10.0,6.0,5.9,1682.3,160.2,4.4,15.5,58.0,101.9,3.0,7.0,Waxing Gibbous,55.0,2.0,Moderate
Kiribati,Tarawa,-0.88,169.53,Pacific/Tarawa,1715849100.0,2024-05-16 20:45:00,28.8,Cloudy,19.8,50.0,NE,1008.0,0.0,0.0,75.0,66.0,33.3,10.0,1.0,26.7,217.0,8.8,0.0,0.1,2.5,8.4,1.0,1.0,Waxing Gibbous,55.0,4.4999999999999964,Good
Kuwait,Kuwait City,29.37,47.96,Asia/Kuwait,1715849100.0,2024-05-16 11:45:00,30.4,Partly cloudy,28.1,40.0,NE,1008.0,0.0,0.0,44.0,50.0,32.6,13.0,8.0,35.3,547.4,78.7,76.1,18.6,31.9,91.4,2.0,3.0,Waxing Gibbous,55.0,2.200000000000003,Good
Kyrghyzstan,Bishkek,42.87,74.6,Asia/Bishkek,1715849100.0,2024-05-16 14:45:00,22.5,Patchy rain nearby,13.0,311.0,NW,1018.0,0.05,0.0,59.0,79.0,24.7,10.0,5.0,14.9,203.6,95.8,0.5,0.5,3.1,6.0,1.0,1.0,Waxing Gibbous,55.0,2.1999999999999993,Good
Indonesia,Laos,-8.18,114.32,Asia/Jakarta,1715849100.0,2024-05-16 15:45:00,28.0,Patchy rain nearby,9.0,149.0,SSE,1010.0,0.03,0.0,74.0,80.0,31.4,10.0,7.0,10.4,397.2,75.1,2.2,2.0,10.0,14.6,1.0,1.0,Waxing Gibbous,55.0,3.3999999999999986,Good
Latvia,Riga,56.95,24.1,Europe/Riga,1715849100.0,2024-05-16 11:45:00,17.0,Sunny,9.0,230.0,SW,1026.0,0.0,0.0,48.0,0.0,17.0,10.0,5.0,11.6,260.4,98.7,4.7,2.5,6.7,8.1,1.0,1.0,Waxing Gibbous,55.0,0.0,Good
Lebanon,Beirut,33.87,35.51,Asia/Beirut,1715849100.0,2024-05-16 11:45:00,22.0,Partly cloudy,9.0,250.0,WSW,1020.0,0.0,0.0,65.0,25.0,24.5,10.0,6.0,12.0,198.6,115.9,0.9,3.6,5.8,13.7,1.0,1.0,Waxing Gibbous,55.0,2.5,Good
Lesotho,Maseru,-29.32,27.48,Africa/Johannesburg,1715849100.0,2024-05-16 10:45:00,18.0,Sunny,3.6,10.0,N,1029.0,0.0,0.0,52.0,0.0,18.0,10.0,7.0,5.8,487.3,40.8,4.5,2.4,29.8,46.6,2.0,3.0,Waxing Gibbous,55.0,0.0,Good
Liberia,Monrovia,6.31,-10.8,Africa/Monrovia,1715849100.0,2024-05-16 08:45:00,26.0,Partly cloudy,3.6,10.0,N,1012.0,0.0,0.0,94.0,75.0,29.1,10.0,7.0,9.2,300.4,30.0,0.7,0.1,1.7,4.1,1.0,1.0,Waxing Gibbous,55.0,3.1000000000000014,Good
Thailand,Nan,18.78,100.78,Asia/Bangkok,1715849100.0,2024-05-16 15:45:00,33.0,Patchy light rain with thunder,11.2,340.0,NNW,1007.0,0.0,0.0,63.0,75.0,34.9,10.0,9.0,12.0,487.3,27.2,0.7,0.2,2.8,3.0,1.0,1.0,Waxing Gibbous,55.0,1.8999999999999986,Good
Liechtenstein,Vaduz,47.13,9.52,Europe/Vaduz,1715849100.0,2024-05-16 10:45:00,15.0,Partly cloudy,9.0,20.0,NNE,1006.0,0.0,0.0,72.0,25.0,15.8,10.0,4.0,16.2,203.6,20.7,10.0,1.3,4.9,6.3,1.0,1.0,Waxing Gibbous,55.0,0.8000000000000007,Good
Lithuania,Vilnius,54.68,25.32,Europe/Vilnius,1715849100.0,2024-05-16 11:45:00,17.0,Sunny,13.0,160.0,SSE,1027.0,0.0,0.0,39.0,0.0,17.0,10.0,5.0,20.2,208.6,89.4,1.4,1.5,1.6,2.2,1.0,1.0,Waxing Gibbous,55.0,0.0,Good
Luxembourg,Luxembourg,49.61,6.13,Europe/Luxembourg,1715849100.0,2024-05-16 10:45:00,14.0,Partly cloudy,16.9,220.0,SW,1005.0,0.31,0.01,88.0,75.0,13.1,10.0,3.0,24.1,188.6,16.5,17.8,0.4,2.1,2.4,1.0,1.0,Waxing Gibbous,55.0,-0.9000000000000004,Good
Madagascar,Antananarivo,-18.92,47.52,Indian/Antananarivo,1715849100.0,2024-05-16 11:45:00,22.0,Partly cloudy,25.9,120.0,ESE,1024.0,0.0,0.0,53.0,50.0,24.5,10.0,6.0,33.1,327.1,49.4,0.8,1.2,2.6,5.8,1.0,1.0,Waxing Gibbous,55.0,2.5,Good
Malawi,Lilongwe,-13.98,33.78,Africa/Blantyre,1715849100.0,2024-05-16 10:45:00,21.0,Partly cloudy,13.0,180.0,S,1025.0,0.0,0.0,64.0,75.0,21.0,10.0,7.0,13.7,243.7,39.7,0.4,0.6,1.1,2.8,1.0,1.0,Waxing Gibbous,55.0,0.0,Good
Malaysia,Kuala Lumpur,3.17,101.7,Asia/Kuala_Lumpur,1715849100.0,2024-05-16 16:45:00,29.0,Partly cloudy,11.2,20.0,NNE,1008.0,1.86,0.07,84.0,25.0,35.7,10.0,6.0,15.5,2456.7,5.4,133.0,43.4,40.5,46.6,3.0,4.0,Waxing Gibbous,55.0,6.700000000000003,Moderate
Maldives,Felidhoo,3.48,73.53,Indian/Maldives,1715849100.0,2024-05-16 13:45:00,29.5,Patchy rain nearby,21.6,289.0,WNW,1009.0,0.04,0.0,76.0,89.0,35.1,10.0,6.0,30.0,233.7,26.1,0.0,0.1,1.0,3.7,1.0,1.0,Waxing Gibbous,55.0,5.600000000000001,Good
Mali,Bamako,12.65,-8.0,Africa/Bamako,1715849100.0,2024-05-16 08:45:00,27.0,Sunny,6.8,170.0,S,1014.0,0.0,0.0,74.0,0.0,28.5,10.0,7.0,10.0,387.2,11.4,1.1,1.2,2.8,5.1,1.0,1.0,Waxing Gibbous,55.0,1.5,Good
Malta,Valletta,35.9,14.51,Europe/Malta,1715849100.0,2024-05-16 10:45:00,28.0,Sunny,15.1,230.0,SW,1005.0,0.0,0.0,45.0,0.0,32.1,10.0,6.0,33.1,247.0,86.6,5.1,1.6,29.8,72.3,2.0,3.0,Waxing Gibbous,55.0,4.100000000000001,Good
Marshall Islands,Majuro,7.1,171.38,Pacific/Majuro,1715849100.0,2024-05-16 20:45:00,29.0,Partly cloudy,11.2,60.0,ENE,1010.0,0.27,0.01,79.0,75.0,35.0,24.0,1.0,42.8,180.2,25.4,0.0,0.1,1.3,3.7,1.0,1.0,Waxing Gibbous,55.0,6.0,Good
Mauritania,Nouakchott,18.09,-15.98,Africa/Nouakchott,1715849100.0,2024-05-16 08:45:00,19.5,Sunny,17.6,336.0,NNW,1012.0,0.0,0.0,79.0,0.0,19.5,10.0,5.0,30.0,207.0,75.1,0.5,0.6,33.3,174.2,2.0,3.0,Waxing Gibbous,55.0,0.0,Good
Mauritius,Port Louis,-20.16,57.5,Indian/Mauritius,1715849100.0,2024-05-16 12:45:00,24.0,Overcast,25.9,140.0,SE,1020.0,0.14,0.01,83.0,75.0,25.7,8.0,6.0,39.3,223.6,45.4,1.2,1.4,2.0,5.4,1.0,1.0,Waxing Gibbous,55.0,1.6999999999999993,Good
Mexico,Mexico City,19.43,-99.13,America/Mexico_City,1715849100.0,2024-05-16 02:45:00,20.8,Clear,10.8,212.0,SSW,1013.0,0.0,0.0,47.0,5.0,20.8,10.0,1.0,12.4,974.7,7.4,48.7,16.9,35.1,48.0,2.0,3.0,Waxing Gibbous,55.0,0.0,Good
Micronesia,Palikir,6.92,158.15,Pacific/Pohnpei,1715849100.0,2024-05-16 19:45:00,27.0,Overcast,3.6,10.0,N,1010.0,0.7,0.03,89.0,100.0,30.4,24.0,1.0,21.9,180.2,23.3,0.0,0.0,0.6,1.6,1.0,1.0,Waxing Gibbous,55.0,3.3999999999999986,Good
Iran,Chi Chi Khvar,36.26,46.59,Asia/Tehran,1715849100.0,2024-05-16 12:15:00,15.9,Thundery outbreaks in nearby,23.4,238.0,WSW,1016.0,0.0,0.0,34.0,44.0,15.9,9.0,4.0,37.0,176.9,111.6,0.3,0.4,4.8,18.2,1.0,1.0,Waxing Gibbous,55.0,0.0,Good
Monaco,Monaco,43.73,7.42,Europe/Monaco,1715849100.0,2024-05-16 10:45:00,16.0,Partly cloudy,20.2,350.0,N,1006.0,0.37,0.01,82.0,50.0,16.0,10.0,4.0,27.4,213.6,88.7,4.0,1.3,3.7,4.3,1.0,1.0,Waxing Gibbous,55.0,0.0,Good
Mongolia,Ulaanbaatar,47.92,106.92,Asia/Ulaanbaatar,1715849100.0,2024-05-16 16:45:00,27.0,Sunny,22.0,280.0,W,1007.0,0.0,0.0,17.0,0.0,26.6,10.0,5.0,29.2,347.1,57.9,14.9,23.4,12.6,23.0,1.0,2.0,Waxing Gibbous,55.0,-0.3999999999999986,Good
Montenegro,Podgorica,42.44,19.26,Europe/Podgorica,1715849100.0,2024-05-16 10:45:00,16.0,Partly cloudy,3.6,203.0,SSW,1014.0,0.34,0.01,88.0,75.0,16.0,10.0,5.0,6.6,185.3,101.6,0.2,0.3,1.3,2.9,1.0,1.0,Waxing Gibbous,55.0,0.0,Good
Morocco,Rabat,34.03,-6.84,Africa/Casablanca,1715849100.0,2024-05-16 09:45:00,18.0,Partly cloudy,9.0,20.0,NNE,1014.0,0.0,0.0,60.0,75.0,18.0,6.0,5.0,9.2,190.3,105.9,0.5,0.9,1.8,7.8,1.0,1.0,Waxing Gibbous,55.0,0.0,Good
Mozambique,Maputo,-25.97,32.59,Africa/Maputo,1715849100.0,2024-05-16 10:45:00,24.0,Partly cloudy,9.0,360.0,N,1024.0,0.0,0.0,65.0,25.0,25.5,10.0,7.0,16.2,260.4,34.3,0.5,0.3,3.6,25.4,1.0,1.0,Waxing Gibbous,55.0,1.5,Good
Myanmar,Pathein,16.78,94.73,Asia/Yangon,1715849100.0,2024-05-16 15:15:00,37.5,Sunny,24.1,307.0,NW,1005.0,0.0,0.0,36.0,13.0,41.4,10.0,9.0,28.0,230.3,20.6,0.1,0.0,1.7,2.7,1.0,1.0,Waxing Gibbous,55.0,3.8999999999999986,Good
Namibia,Windhoek,-22.57,17.08,Africa/Windhoek,1715849100.0,2024-05-16 10:45:00,20.0,Sunny,11.2,90.0,E,1033.0,0.0,0.0,40.0,0.0,20.0,10.0,7.0,36.4,212.0,42.6,0.1,0.5,2.1,5.5,1.0,1.0,Waxing Gibbous,55.0,0.0,Good
Turkey,Yaren,39.55,27.62,Europe/Istanbul,1715849100.0,2024-05-16 11:45:00,18.0,Sunny,3.6,9.0,N,1020.0,0.0,0.0,56.0,0.0,18.0,10.0,5.0,13.5,210.3,87.3,0.9,2.0,8.4,9.8,1.0,1.0,Waxing Gibbous,55.0,0.0,Good
Nepal,Kathmandu,27.72,85.32,Asia/Kathmandu,1715849100.0,2024-05-16 14:30:00,29.0,Light rain,19.1,200.0,SSW,1017.0,0.0,0.0,48.0,50.0,27.7,8.0,8.0,26.3,327.1,120.2,0.6,1.9,22.3,30.9,2.0,2.0,Waxing Gibbous,55.0,-1.3000000000000007,Good
Netherlands,Amsterdam,52.37,4.89,Europe/Amsterdam,1715849100.0,2024-05-16 10:45:00,16.0,Partly cloudy,6.8,30.0,NNE,1003.0,0.71,0.03,94.0,75.0,16.0,7.0,4.0,12.5,280.4,4.1,33.2,3.3,15.3,16.7,1.0,2.0,Waxing Gibbous,55.0,0.0,Good
New Zealand,Wellington,-41.3,174.78,Pacific/Auckland,1715849100.0,2024-05-16 20:45:00,13.0,Partly cloudy,37.1,180.0,S,1019.0,0.01,0.0,77.0,75.0,10.3,10.0,1.0,43.6,227.0,41.8,0.9,0.4,0.5,0.9,1.0,1.0,Waxing Gibbous,55.0,-2.6999999999999993,Good
Nicaragua,Managua,12.15,-86.27,America/Managua,1715849100.0,2024-05-16 02:45:00,27.2,Patchy rain nearby,5.8,120.0,ESE,1009.0,0.01,0.0,80.0,75.0,30.6,10.0,1.0,7.2,500.7,14.3,6.5,11.4,11.7,14.7,1.0,1.0,Waxing Gibbous,55.0,3.400000000000002,Good
Niger,Niamey,13.52,2.12,Africa/Niamey,1715849100.0,2024-05-16 09:45:00,33.0,Sunny,20.2,270.0,W,1011.0,0.0,0.0,36.0,0.0,33.7,10.0,8.0,27.4,383.9,27.9,0.9,0.5,10.3,33.6,1.0,1.0,Waxing Gibbous,55.0,0.7000000000000028,Good
Nigeria,Abuja,9.18,7.18,Africa/Lagos,1715849100.0,2024-05-16 09:45:00,29.2,Partly Cloudy,7.2,203.0,SSW,1012.0,0.0,0.0,67.0,32.0,32.8,10.0,7.0,8.3,540.7,20.2,1.2,0.3,12.6,17.9,1.0,2.0,Waxing Gibbous,55.0,3.599999999999998,Good
North Korea,Pyongyang,39.02,125.75,Asia/Pyongyang,1715849100.0,2024-05-16 17:45:00,19.0,Sunny,18.4,292.0,WNW,1007.0,0.0,0.0,27.0,4.0,19.0,10.0,5.0,21.9,230.3,105.9,1.2,2.6,6.5,8.6,1.0,1.0,Waxing Gibbous,55.0,0.0,Good
Macedonia,Skopje,42.0,21.43,Europe/Skopje,1715849100.0,2024-05-16 10:45:00,13.0,Moderate rain,3.6,109.0,ESE,1020.0,0.1,0.0,88.0,100.0,11.8,9.0,3.0,15.3,208.6,63.7,5.1,11.9,7.6,8.3,1.0,1.0,Waxing Gibbous,55.0,-1.1999999999999993,Good
Norway,Oslo,59.92,10.75,Europe/Oslo,1715849100.0,2024-05-16 10:45:00,18.0,Sunny,13.0,190.0,S,1021.0,0.0,0.0,49.0,0.0,18.0,10.0,5.0,14.0,270.4,52.9,32.9,37.2,11.5,14.2,1.0,1.0,Waxing Gibbous,55.0,0.0,Good
Oman,Muscat,23.61,58.59,Asia/Muscat,1715849100.0,2024-05-16 12:45:00,33.0,Sunny,19.1,50.0,NE,1009.0,0.0,0.0,56.0,0.0,36.4,10.0,8.0,26.3,303.8,173.1,2.1,7.1,46.6,90.4,3.0,5.0,Waxing Gibbous,55.0,3.3999999999999986,Moderate
Pakistan,Islamabad,33.7,73.17,Asia/Karachi,1715849100.0,2024-05-16 13:45:00,38.2,Sunny,11.9,264.0,W,1008.0,0.0,0.0,15.0,2.0,37.4,10.0,9.0,13.7,303.8,163.1,3.4,1.4,15.5,31.0,2.0,2.0,Waxing Gibbous,55.0,-0.8000000000000043,Good
Palau,Meyungs,7.35,134.45,Pacific/Palau,1715849100.0,2024-05-16 17:45:00,31.0,Partly cloudy,11.2,60.0,ENE,1008.0,0.01,0.0,75.0,75.0,38.1,23.0,1.0,17.7,176.9,23.3,0.1,0.1,0.9,2.9,1.0,1.0,Waxing Gibbous,55.0,7.100000000000001,Good
Bolivia,National,-11.18,-67.08,America/La_Paz,1715849100.0,2024-05-16 04:45:00,17.4,Clear,3.6,146.0,SSE,1012.0,0.0,0.0,83.0,13.0,17.4,10.0,1.0,3.8,185.3,3.6,0.1,0.0,1.8,2.0,1.0,1.0,Waxing Gibbous,55.0,0.0,Good
Panama,Panama City,8.97,-79.53,America/Panama,1715849100.0,2024-05-16 03:45:00,26.0,Overcast,3.6,173.0,S,1010.0,0.06,0.0,94.0,100.0,29.6,10.0,1.0,13.3,397.2,11.6,8.7,6.6,2.9,3.9,1.0,1.0,Waxing Gibbous,55.0,3.6000000000000014,Good
Papua New Guinea,Port Moresby,-9.46,147.19,Pacific/Port_Moresby,1715849100.0,2024-05-16 18:45:00,26.2,Light rain shower,15.8,126.0,SE,1008.0,1.79,0.07,90.0,89.0,29.9,10.0,1.0,27.0,227.0,34.0,4.1,3.6,2.8,6.4,1.0,1.0,Waxing Gibbous,55.0,3.6999999999999993,Good
Paraguay,Pasto,-19.45,-61.15,America/La_Paz,1715849100.0,2024-05-16 04:45:00,14.1,Clear,11.2,12.0,NNE,1010.0,0.0,0.0,79.0,10.0,13.4,10.0,1.0,21.2,217.0,8.8,0.2,0.0,3.6,3.8,1.0,1.0,Waxing Gibbous,55.0,-0.6999999999999993,Good
Peru,Lima,-12.05,-77.05,America/Lima,1715849100.0,2024-05-16 03:45:00,16.6,Partly Cloudy,11.9,163.0,SSE,1013.0,0.0,0.0,89.0,59.0,16.6,10.0,1.0,18.4,303.8,30.0,12.2,10.6,9.6,20.2,1.0,1.0,Waxing Gibbous,55.0,0.0,Good
Philippines,Manila,14.6,120.98,Asia/Manila,1715849100.0,2024-05-16 16:45:00,35.0,Partly cloudy,3.6,155.0,SSE,1007.0,0.0,0.0,56.0,50.0,41.3,10.0,8.0,9.6,734.3,128.8,10.5,16.7,32.2,47.2,2.0,3.0,Waxing Gibbous,55.0,6.299999999999997,Good
Poland,Warsaw,52.25,21.0,Europe/Warsaw,1715849100.0,2024-05-16 10:45:00,18.0,Sunny,31.0,120.0,ESE,1021.0,0.0,0.0,34.0,0.0,18.0,10.0,5.0,31.1,217.0,93.0,1.4,2.8,3.0,3.6,1.0,1.0,Waxing Gibbous,55.0,0.0,Good
Portugal,Lisbon,38.72,-9.13,Europe/Lisbon,1715849100.0,2024-05-16 09:45:00,16.0,Partly cloudy,11.2,340.0,NNW,1013.0,0.01,0.0,77.0,75.0,16.0,10.0,4.0,15.9,208.6,82.3,5.4,1.6,1.8,5.2,1.0,1.0,Waxing Gibbous,55.0,0.0,Good
Qatar,Doha,25.29,51.53,Asia/Qatar,1715849100.0,2024-05-16 11:45:00,37.0,Sunny,19.1,120.0,ESE,1009.0,0.0,0.0,37.0,0.0,39.2,10.0,9.0,30.9,213.6,97.3,15.1,23.1,27.2,117.1,2.0,3.0,Waxing Gibbous,55.0,2.200000000000003,Good
Romania,Bucharest,44.43,26.1,Europe/Bucharest,1715849100.0,2024-05-16 11:45:00,18.0,Sunny,19.1,120.0,ESE,1023.0,0.0,0.0,26.0,0.0,18.0,10.0,5.0,22.4,223.6,93.0,1.6,1.8,3.9,4.7,1.0,1.0,Waxing Gibbous,55.0,0.0,Good
Russia,Moscow,55.75,37.62,Europe/Moscow,1715849100.0,2024-05-16 11:45:00,18.0,Sunny,19.1,260.0,W,1023.0,0.0,0.0,42.0,0.0,18.0,10.0,4.0,26.3,243.7,103.0,18.5,16.5,4.4,5.7,1.0,1.0,Waxing Gibbous,55.0,0.0,Good
Rwanda,Kigali,-1.95,30.06,Africa/Kigali,1715849100.0,2024-05-16 10:45:00,25.0,Partly cloudy,9.0,180.0,S,1023.0,0.79,0.03,61.0,50.0,27.0,10.0,6.0,16.2,287.1,30.0,0.5,0.8,4.2,6.3,1.0,1.0,Waxing Gibbous,55.0,2.0,Good
Saint Kitts and Nevis,Basseterre,17.3,-62.72,America/St_Kitts,1715849100.0,2024-05-16 04:45:00,27.0,Clear,13.0,80.0,E,1013.0,0.0,0.0,79.0,0.0,30.0,10.0,1.0,31.5,208.6,26.5,0.3,0.1,1.0,4.1,1.0,1.0,Waxing Gibbous,55.0,3.0,Good
Saint Lucia,Castries,14.0,-61.0,America/St_Lucia,1715849100.0,2024-05-16 04:45:00,28.0,Partly cloudy,20.2,80.0,E,1012.0,0.06,0.0,84.0,75.0,32.3,10.0,1.0,23.0,210.3,21.8,0.1,0.1,1.4,4.3,1.0,1.0,Waxing Gibbous,55.0,4.299999999999997,Good
Saint Vincent and the Grenadines,Kingstown,13.13,-61.22,America/St_Vincent,1715849100.0,2024-05-16 04:45:00,28.0,Partly cloudy,20.2,80.0,E,1012.0,0.01,0.0,84.0,75.0,31.7,10.0,1.0,34.6,237.0,20.4,0.7,0.7,1.9,7.1,1.0,1.0,Waxing Gibbous,55.0,3.6999999999999993,Good
Samoa,Apia,-13.83,-171.73,Pacific/Apia,1715849100.0,2024-05-16 21:45:00,26.0,Partly cloudy,6.1,100.0,E,1011.0,0.79,0.03,94.0,50.0,28.5,10.0,1.0,34.5,213.6,25.4,0.5,0.4,1.1,2.3,1.0,1.0,Waxing Gibbous,55.0,2.5,Good
San Marino,San Marino,43.93,12.45,Europe/Rome,1715849100.0,2024-05-16 10:45:00,18.0,Overcast,3.6,4.0,N,1007.0,0.6,0.02,88.0,100.0,18.0,10.0,4.0,5.2,240.3,70.1,3.3,0.7,14.6,17.9,1.0,2.0,Waxing Gibbous,55.0,0.0,Good
Belgium,'S Gravenstaffel,50.88,2.98,Europe/Brussels,1715849100.0,2024-05-16 10:45:00,14.0,Light rain,13.0,320.0,NW,1004.0,0.03,0.0,94.0,75.0,12.9,4.0,3.0,19.0,247.0,8.3,12.0,0.8,13.4,15.1,1.0,2.0,Waxing Gibbous,55.0,-1.0999999999999996,Good
Saudi Arabia,Riyadh,24.64,46.77,Asia/Riyadh,1715849100.0,2024-05-16 11:45:00,39.0,Sunny,15.1,190.0,S,1010.0,0.0,0.0,7.0,0.0,38.5,10.0,9.0,23.6,283.7,103.0,23.7,79.2,49.1,149.9,3.0,6.0,Waxing Gibbous,55.0,-0.5,Moderate
Senegal,Dakar,14.67,-17.44,Africa/Dakar,1715849100.0,2024-05-16 08:45:00,22.0,Partly cloudy,11.2,320.0,NW,1013.0,0.0,0.0,78.0,75.0,24.5,10.0,6.0,31.7,195.3,66.5,1.0,0.8,21.4,125.2,2.0,2.0,Waxing Gibbous,55.0,2.5,Good
Serbia,Belgrade,44.8,20.47,Europe/Belgrade,1715849100.0,2024-05-16 10:45:00,19.0,Sunny,41.0,120.0,ESE,1015.0,0.0,0.0,56.0,0.0,19.0,10.0,5.0,48.2,207.0,85.1,1.5,4.6,2.7,3.5,1.0,1.0,Waxing Gibbous,55.0,0.0,Good
Seychelles Islands,Victoria,-4.62,55.45,Indian/Mahe,1715849100.0,2024-05-16 12:45:00,27.0,Light rain,20.2,340.0,NNW,1010.0,0.35,0.01,89.0,75.0,30.5,10.0,7.0,45.1,240.3,33.6,0.1,0.3,2.0,5.7,1.0,1.0,Waxing Gibbous,55.0,3.5,Good
Sierra Leone,Freetown,8.49,-13.23,Africa/Freetown,1715849100.0,2024-05-16 08:45:00,27.4,Partly Cloudy,3.6,265.0,W,1012.0,0.0,0.0,79.0,36.0,30.9,10.0,7.0,3.9,410.6,3.6,1.9,0.3,8.2,12.1,1.0,1.0,Waxing Gibbous,55.0,3.5,Good
Singapore,Singapore,1.29,103.86,Asia/Singapore,1715849100.0,2024-05-16 16:45:00,26.0,Partly cloudy,4.0,240.0,WSW,1009.0,1.75,0.07,89.0,75.0,28.4,10.0,6.0,20.3,654.2,16.3,52.8,42.0,8.9,11.0,1.0,1.0,Waxing Gibbous,55.0,2.3999999999999986,Good
Slovakia,Bratislava,48.15,17.12,Europe/Bratislava,1715849100.0,2024-05-16 10:45:00,17.0,Partly cloudy,25.9,120.0,ESE,1015.0,0.0,0.0,55.0,25.0,17.0,10.0,4.0,36.9,205.3,74.4,2.8,2.7,4.7,5.5,1.0,1.0,Waxing Gibbous,55.0,0.0,Good
Slovenia,Ljubljana,46.06,14.51,Europe/Ljubljana,1715849100.0,2024-05-16 10:45:00,16.0,Partly cloudy,16.9,110.0,ESE,1011.0,0.06,0.0,82.0,75.0,16.0,10.0,3.0,24.1,212.0,61.5,4.2,0.9,2.8,3.3,1.0,1.0,Waxing Gibbous,55.0,0.0,Good
Solomon Islands,Honiara,-9.43,159.95,Pacific/Guadalcanal,1715849100.0,2024-05-16 19:45:00,26.9,Patchy rain nearby,15.8,119.0,ESE,1009.0,0.09,0.0,87.0,78.0,31.0,10.0,1.0,22.3,220.3,23.3,1.0,0.4,0.5,0.6,1.0,1.0,Waxing Gibbous,55.0,4.100000000000001,Good
Somalia,Mogadishu,2.07,45.37,Africa/Mogadishu,1715849100.0,2024-05-16 11:45:00,30.0,Partly cloudy,22.0,220.0,SW,1012.0,0.0,0.0,89.0,25.0,35.5,10.0,7.0,34.1,257.0,32.2,0.1,0.1,2.7,6.2,1.0,1.0,Waxing Gibbous,55.0,5.5,Good
South Africa,Pretoria,-25.75,28.19,Africa/Johannesburg,1715849100.0,2024-05-16 10:45:00,20.0,Sunny,6.1,290.0,WNW,1031.0,0.0,0.0,35.0,0.0,20.0,10.0,7.0,9.1,1134.9,53.6,49.4,92.5,78.1,108.3,4.0,10.0,Waxing Gibbous,55.0,0.0,Moderate
South Korea,Seoul,37.57,127.0,Asia/Seoul,1715849100.0,2024-05-16 17:45:00,19.0,Sunny,15.1,250.0,WSW,1008.0,0.0,0.0,35.0,0.0,19.0,10.0,5.0,22.4,360.5,93.0,32.6,18.1,18.7,23.7,2.0,2.0,Waxing Gibbous,55.0,0.0,Good
Sudan,Juba,12.15,24.45,Africa/Khartoum,1715849100.0,2024-05-16 10:45:00,30.3,Sunny,33.1,53.0,NE,1014.0,0.0,0.0,10.0,6.0,28.0,10.0,8.0,38.1,170.2,95.8,0.2,0.3,38.7,223.3,2.0,4.0,Waxing Gibbous,55.0,-2.3000000000000007,Good
Spain,Madrid,40.4,-3.68,Europe/Madrid,1715849100.0,2024-05-16 10:45:00,14.0,Sunny,19.1,260.0,W,1011.0,0.0,0.0,47.0,0.0,12.7,10.0,4.0,26.3,186.9,87.3,2.4,0.1,0.5,1.1,1.0,1.0,Waxing Gibbous,55.0,-1.3000000000000007,Good
Sri Lanka,Colombo,6.93,79.85,Asia/Colombo,1715849100.0,2024-05-16 14:15:00,26.0,Moderate or heavy rain with thunder,6.1,20.0,NNE,1008.0,1.01,0.04,94.0,50.0,29.5,9.0,6.0,21.6,667.6,57.2,20.1,2.8,4.0,8.3,1.0,1.0,Waxing Gibbous,55.0,3.5,Good
Sudan,Khartoum,15.59,32.53,Africa/Khartoum,1715849100.0,2024-05-16 10:45:00,32.5,Sunny,25.2,19.0,NNE,1012.0,0.0,0.0,10.0,3.0,30.3,10.0,8.0,29.0,263.7,130.2,1.6,2.8,28.0,124.1,2.0,3.0,Waxing Gibbous,55.0,-2.1999999999999993,Good
Suriname,Paramaribo,5.83,-55.17,America/Paramaribo,1715849100.0,2024-05-16 05:45:00,24.4,Mist,7.6,83.0,E,1010.0,0.0,0.0,96.0,43.0,27.2,2.0,1.0,13.2,188.6,31.1,0.1,0.1,1.1,2.2,1.0,1.0,Waxing Gibbous,55.0,2.8000000000000007,Good
Sweden,Stockholm,59.33,18.05,Europe/Stockholm,1715849100.0,2024-05-16 10:45:00,20.0,Sunny,11.2,260.0,W,1024.0,0.0,0.0,40.0,0.0,20.0,10.0,5.0,13.5,253.7,76.5,10.9,14.9,4.2,6.1,1.0,1.0,Waxing Gibbous,55.0,0.0,Good
Switzerland,Bern,46.92,7.47,Europe/Zurich,1715849100.0,2024-05-16 10:45:00,14.0,Partly cloudy,3.6,270.0,W,1006.0,0.13,0.0,82.0,75.0,14.5,10.0,3.0,5.0,213.6,60.8,4.9,1.4,2.4,2.8,1.0,1.0,Waxing Gibbous,55.0,0.5,Good
Syria,Damascus,33.5,36.3,Asia/Damascus,1715849100.0,2024-05-16 11:45:00,24.0,Sunny,3.6,10.0,N,1019.0,0.0,0.0,31.0,0.0,23.9,10.0,6.0,11.2,183.6,121.6,4.0,5.1,5.1,10.2,1.0,1.0,Waxing Gibbous,55.0,-0.10000000000000142,Good
Tajikistan,Dushanbe,38.56,68.77,Asia/Dushanbe,1715849100.0,2024-05-16 13:45:00,29.0,Partly cloudy,3.6,176.0,S,1017.0,0.05,0.0,37.0,25.0,29.4,6.0,6.0,5.4,233.7,105.9,0.4,1.4,5.5,14.8,1.0,1.0,Waxing Gibbous,55.0,0.3999999999999986,Good
Tanzania,Dodoma,-6.18,35.75,Africa/Dar_es_Salaam,1715849100.0,2024-05-16 11:45:00,25.0,Partly cloudy,19.1,110.0,ESE,1021.0,0.0,0.0,57.0,50.0,26.0,10.0,8.0,26.3,233.7,27.9,0.2,0.2,1.9,3.4,1.0,1.0,Waxing Gibbous,55.0,1.0,Good
Thailand,Bangkok,13.75,100.52,Asia/Bangkok,1715849100.0,2024-05-16 15:45:00,31.0,Partly cloudy,15.1,210.0,SSW,1007.0,0.11,0.0,75.0,25.0,32.7,10.0,8.0,18.2,3898.6,0.0,85.0,80.1,115.2,163.7,4.0,10.0,Waxing Gibbous,55.0,1.7000000000000028,Moderate
Timor-Leste,Dili,-8.56,125.57,Asia/Dili,1715849100.0,2024-05-16 17:45:00,28.0,Patchy rain nearby,14.4,65.0,ENE,1010.0,0.03,0.0,77.0,79.0,31.8,10.0,7.0,16.6,230.3,26.5,0.0,0.1,0.8,2.1,1.0,1.0,Waxing Gibbous,55.0,3.8000000000000007,Good
Bulgaria,Lom,43.81,23.24,Europe/Bucharest,1715849100.0,2024-05-16 11:45:00,19.0,Sunny,29.9,90.0,E,1021.0,0.0,0.0,43.0,0.0,19.0,10.0,4.0,37.1,220.3,68.0,1.2,0.4,3.2,3.9,1.0,1.0,Waxing Gibbous,55.0,0.0,Good
Tonga,Nuku`Aloia,-21.13,-175.2,Pacific/Tongatapu,1715849100.0,2024-05-16 21:45:00,23.0,Moderate rain,33.1,80.0,E,1016.0,2.09,0.08,100.0,100.0,25.2,6.0,1.0,56.8,217.0,36.8,0.1,0.1,2.4,6.3,1.0,1.0,Waxing Gibbous,55.0,2.1999999999999993,Good
Trinidad and Tobago,Port Of Spain,10.65,-61.52,America/Port_of_Spain,1715849100.0,2024-05-16 04:45:00,26.0,Partly cloudy,3.6,10.0,N,1011.0,0.03,0.0,89.0,25.0,29.6,10.0,1.0,15.1,198.6,19.5,0.6,0.4,2.2,5.5,1.0,1.0,Waxing Gibbous,55.0,3.6000000000000014,Good
Tunisia,Tunis,36.8,10.18,Africa/Tunis,1715849100.0,2024-05-16 09:45:00,24.0,Partly cloudy,19.1,300.0,WNW,1008.0,0.0,0.0,57.0,25.0,25.2,10.0,6.0,26.3,200.3,73.7,1.9,1.6,6.7,15.7,1.0,1.0,Waxing Gibbous,55.0,1.1999999999999993,Good
Turkey,Ankara,39.93,32.86,Europe/Istanbul,1715849100.0,2024-05-16 11:45:00,16.0,Partly cloudy,13.0,240.0,WSW,1020.0,0.02,0.0,45.0,75.0,16.0,10.0,4.0,23.6,233.7,107.3,6.8,9.4,11.2,12.2,1.0,1.0,Waxing Gibbous,55.0,0.0,Good
Turkmenistan,Ashgabat,37.95,58.38,Asia/Ashgabat,1715849100.0,2024-05-16 13:45:00,23.0,Partly cloudy,6.8,50.0,NE,1016.0,0.02,0.0,69.0,75.0,24.9,10.0,5.0,14.0,240.3,85.1,6.9,6.8,9.0,39.0,1.0,1.0,Waxing Gibbous,55.0,1.8999999999999986,Good
Tuvalu,Funafuti,-8.52,179.22,Pacific/Funafuti,1715849100.0,2024-05-16 20:45:00,26.0,Moderate rain at times,20.2,90.0,E,1008.0,2.0,0.08,100.0,100.0,28.4,8.0,1.0,24.0,207.0,23.6,0.0,0.0,0.6,1.6,1.0,1.0,Waxing Gibbous,55.0,2.3999999999999986,Good
Uganda,Kampala,0.32,32.57,Africa/Kampala,1715849100.0,2024-05-16 11:45:00,25.7,Patchy rain nearby,3.6,109.0,ESE,1015.0,0.02,0.0,60.0,77.0,26.9,10.0,6.0,4.1,320.4,36.8,0.3,0.3,4.1,7.6,1.0,1.0,Waxing Gibbous,55.0,1.1999999999999993,Good
Ukraine,Kyiv,50.43,30.52,Europe/Kiev,1715849100.0,2024-05-16 11:45:00,13.8,Patchy rain nearby,13.0,94.0,E,1027.0,0.25,0.01,53.0,72.0,12.8,9.0,3.0,15.6,213.6,93.0,0.9,2.2,2.0,2.3,1.0,1.0,Waxing Gibbous,55.0,-1.0,Good
United Arab Emirates,Abu Dhabi,24.47,54.37,Asia/Dubai,1715849100.0,2024-05-16 12:45:00,39.0,Sunny,11.2,180.0,S,1009.0,0.0,0.0,19.0,0.0,50.0,10.0,8.0,34.0,203.6,91.6,1.2,0.4,34.1,148.6,2.0,3.0,Waxing Gibbous,55.0,11.0,Good
United Kingdom,London,51.52,-0.11,Europe/London,1715849100.0,2024-05-16 09:45:00,14.0,Partly cloudy,4.0,120.0,ESE,1005.0,0.2,0.01,88.0,50.0,14.5,10.0,3.0,6.2,383.9,0.5,31.9,22.4,16.9,19.8,2.0,2.0,Waxing Gibbous,55.0,0.5,Good
United States of America,Washington Park,46.6,-120.49,America/Los_Angeles,1715849100.0,2024-05-16 01:45:00,16.1,Clear,6.8,220.0,SW,1012.0,0.0,0.0,58.0,0.0,16.1,16.0,1.0,16.6,198.6,62.2,2.5,0.2,6.3,7.1,1.0,1.0,Waxing Gibbous,55.0,0.0,Good
Uruguay,Montevideo,-34.86,-56.17,America/Montevideo,1715849100.0,2024-05-16 05:45:00,6.0,Clear,9.0,340.0,NNW,1014.0,0.0,0.0,87.0,0.0,3.4,10.0,1.0,19.1,337.1,19.3,8.6,6.4,6.5,10.5,1.0,1.0,Waxing Gibbous,55.0,-2.6,Good
Uzbekistan,Tashkent,41.32,69.25,Asia/Tashkent,1715849100.0,2024-05-16 13:45:00,22.0,Partly cloudy,15.1,20.0,NNE,1019.0,0.01,0.0,73.0,37.0,24.5,10.0,5.0,22.3,240.3,107.3,11.7,1.7,2.9,3.8,1.0,1.0,Waxing Gibbous,55.0,2.5,Good
Vanuatu,Port Vila,-17.73,168.32,Pacific/Efate,1715849100.0,2024-05-16 19:45:00,25.0,Partly cloudy,13.0,120.0,ESE,1013.0,0.02,0.0,83.0,50.0,26.9,10.0,1.0,37.8,220.3,45.1,0.2,0.6,3.1,13.4,1.0,1.0,Waxing Gibbous,55.0,1.8999999999999986,Good
Venezuela,Caracas,10.5,-66.92,America/Caracas,1715849100.0,2024-05-16 04:45:00,26.0,Partly cloudy,3.6,10.0,N,1013.0,0.05,0.0,84.0,25.0,29.9,10.0,1.0,9.9,317.1,0.2,13.0,16.5,6.2,9.5,1.0,1.0,Waxing Gibbous,55.0,3.8999999999999986,Good
Vietnam,Hanoi,21.03,105.85,Asia/Bangkok,1715849100.0,2024-05-16 15:45:00,30.0,Partly cloudy,6.8,340.0,NNW,1011.0,0.03,0.0,62.0,75.0,32.5,10.0,6.0,8.1,560.8,197.4,14.7,27.2,72.5,82.8,4.0,10.0,Waxing Gibbous,55.0,2.5,Moderate
Yemen,Sanaa,15.35,44.21,Asia/Aden,1715849100.0,2024-05-16 11:45:00,25.7,Patchy rain nearby,12.6,50.0,NE,1014.0,0.01,0.0,27.0,82.0,24.9,10.0,6.0,14.5,183.6,83.7,2.4,11.0,32.5,125.3,2.0,3.0,Waxing Gibbous,55.0,-0.8000000000000007,Good
Zambia,Lusaka,-15.42,28.28,Africa/Lusaka,1715849100.0,2024-05-16 10:45:00,21.8,Sunny,14.4,96.0,E,1021.0,0.0,0.0,46.0,12.0,21.8,10.0,7.0,16.6,1108.2,60.8,2.7,5.1,10.7,18.8,1.0,1.0,Waxing Gibbous,55.0,0.0,Good
Zimbabwe,Harare,-17.82,31.04,Africa/Harare,1715849100.0,2024-05-16 10:45:00,20.2,Sunny,9.7,141.0,SE,1022.0,0.0,0.0,37.0,4.0,20.2,10.0,7.0,11.2,747.7,80.8,8.3,20.0,67.2,78.3,4.0,9.0,Waxing Gibbous,55.0,0.0,Moderate
Afghanistan,Kabul,34.52,69.18,Asia/Kabul,1715868000.0,2024-05-16 18:30:00,22.0,Patchy rain nearby,7.2,318.0,NW,1014.0,0.03,0.0,41.0,89.0,22.0,10.0,5.0,8.5,1495.4,60.1,19.4,0.6,9.4,18.9,1.0,1.0,Waxing Gibbous,55.0,0.0,Good
Albania,Tirana,41.33,19.82,Europe/Tirane,1715868000.0,2024-05-16 16:00:00,29.0,Partly cloudy,6.8,230.0,SW,1008.0,0.0,0.0,45.0,25.0,31.9,10.0,6.0,8.3,195.3,93.0,3.6,0.3,2.3,4.3,1.0,1.0,Waxing Gibbous,55.0,2.8999999999999986,Good
Algeria,Algiers,36.76,3.05,Africa/Algiers,1715868000.0,2024-05-16 15:00:00,25.0,Partly cloudy,28.1,330.0,NNW,1010.0,0.0,0.0,39.0,25.0,25.9,10.0,6.0,35.3,198.6,105.9,1.8,2.0,4.3,11.5,1.0,1.0,Waxing Gibbous,55.0,0.8999999999999986,Good
Andorra,Andorra La Vella,42.5,1.52,Europe/Andorra,1715868000.0,2024-05-16 16:00:00,6.3,Patchy light rain in area with thunder,10.1,223.0,SW,1007.0,0.22,0.01,76.0,76.0,4.2,10.0,2.0,13.8,156.9,80.1,0.7,0.1,0.7,0.8,1.0,1.0,Waxing Gibbous,55.0,-2.0999999999999996,Good
Angola,Luanda,-8.84,13.23,Africa/Luanda,1715868000.0,2024-05-16 15:00:00,32.0,Sunny,25.9,280.0,W,1008.0,0.0,0.0,63.0,0.0,40.4,10.0,8.0,31.6,494.0,85.8,9.0,4.0,31.7,68.5,2.0,3.0,Waxing Gibbous,55.0,8.399999999999999,Good
Antigua and Barbuda,Saint John's,17.12,-61.85,America/Antigua,1715868000.0,2024-05-16 10:00:00,29.0,Partly cloudy,15.1,100.0,E,1015.0,0.02,0.0,75.0,50.0,33.4,10.0,6.0,23.5,233.7,31.5,0.7,0.9,1.0,3.6,1.0,1.0,Waxing Gibbous,55.0,4.399999999999999,Good
Argentina,Buenos Aires,-34.59,-58.67,America/Argentina/Buenos_Aires,1715868000.0,2024-05-16 11:00:00,11.0,Sunny,11.2,330.0,NNW,1014.0,0.0,0.0,76.0,0.0,10.1,10.0,5.0,18.4,634.2,4.0,15.3,3.5,4.8,7.2,1.0,1.0,Waxing Gibbous,55.0,-0.9000000000000004,Good
Armenia,Yerevan,40.18,44.51,Asia/Yerevan,1715868000.0,2024-05-16 18:00:00,15.0,Partly cloudy,4.0,10.0,N,1017.0,0.2,0.01,77.0,37.0,15.4,10.0,4.0,5.9,195.3,91.6,6.3,1.2,1.0,1.1,1.0,1.0,Waxing Gibbous,55.0,0.40000000000000036,Good
Australia,Canberra,-35.28,149.22,Australia/Sydney,1715868000.0,2024-05-17 00:00:00,5.0,Clear,3.6,10.0,N,1027.0,0.0,0.0,100.0,0.0,4.7,10.0,1.0,3.8,307.1,2.5,20.7,1.5,9.9,13.7,1.0,1.0,Waxing Gibbous,55.0,-0.2999999999999998,Good
Austria,Vienna,48.2,16.37,Europe/Vienna,1715868000.0,2024-05-16 16:00:00,17.0,Light rain,25.9,170.0,S,1013.0,0.0,0.0,72.0,75.0,17.0,10.0,4.0,28.5,203.6,86.6,3.4,1.7,1.5,1.9,1.0,1.0,Waxing Gibbous,55.0,0.0,Good
Azerbaijan,Baku,40.4,49.88,Asia/Baku,1715868000.0,2024-05-16 18:00:00,17.0,Partly cloudy,19.1,30.0,NNE,1019.0,0.0,0.0,59.0,50.0,17.0,10.0,5.0,19.3,253.7,65.8,17.0,1.7,2.0,2.3,1.0,1.0,Waxing Gibbous,55.0,0.0,Good
Bahamas,Nassau,25.08,-77.35,America/Nassau,1715868000.0,2024-05-16 10:00:00,29.0,Partly cloudy,25.9,200.0,SSW,1013.0,0.0,0.0,79.0,50.0,35.7,10.0,7.0,30.3,350.5,62.9,0.6,1.4,17.5,29.0,2.0,2.0,Waxing Gibbous,55.0,6.700000000000003,Good
Bahrain,Manama,26.24,50.58,Asia/Bahrain,1715868000.0,2024-05-16 17:00:00,36.0,Sunny,16.9,80.0,E,1005.0,0.0,0.0,42.0,0.0,42.8,10.0,8.0,62.0,230.3,133.0,1.6,1.0,40.1,101.5,2.0,4.0,Waxing Gibbous,55.0,6.799999999999997,Good
Bangladesh,Dhaka,23.72,90.41,Asia/Dhaka,1715868000.0,2024-05-16 20:00:00,34.2,Clear,12.6,186.0,S,1005.0,0.0,0.0,41.0,20.0,36.9,10.0,1.0,22.1,934.6,117.3,19.9,7.8,64.2,80.0,3.0,8.0,Waxing Gibbous,55.0,2.6999999999999957,Moderate
Barbados,Bridgetown,13.1,-59.62,America/Barbados,1715868000.0,2024-05-16 10:00:00,30.0,Partly cloudy,31.0,80.0,E,1014.0,0.02,0.0,75.0,25.0,35.8,10.0,6.0,38.2,253.7,31.5,1.2,2.6,2.4,10.1,1.0,1.0,Waxing Gibbous,55.0,5.799999999999997,Good
Belarus,Minsk,53.9,27.57,Europe/Minsk,1715868000.0,2024-05-16 17:00:00,17.0,Sunny,6.8,30.0,NNE,1025.0,0.0,0.0,34.0,0.0,17.0,10.0,5.0,6.9,213.6,85.8,3.5,2.4,2.3,2.5,1.0,1.0,Waxing Gibbous,55.0,0.0,Good
Belgium,Brussels,50.83,4.33,Europe/Brussels,1715868000.0,2024-05-16 16:00:00,17.0,Partly cloudy,19.1,230.0,SW,1005.0,0.04,0.0,77.0,50.0,17.0,10.0,4.0,26.3,212.0,83.0,6.9,2.4,1.9,2.1,1.0,1.0,Waxing Gibbous,55.0,0.0,Good
Belize,Belmopan,17.25,-88.77,America/Belize,1715868000.0,2024-05-16 08:00:00,30.0,Partly cloudy,13.0,110.0,ESE,1010.0,0.0,0.0,79.0,75.0,34.7,9.0,7.0,20.2,290.4,29.0,0.4,0.3,7.0,25.8,1.0,1.0,Waxing Gibbous,55.0,4.700000000000003,Good
Benin,Porto-Novo,6.48,2.62,Africa/Porto-Novo,1715868000.0,2024-05-16 15:00:00,24.0,Moderate or heavy rain with thunder,28.1,80.0,E,1012.0,0.05,0.0,89.0,100.0,26.2,8.0,6.0,30.5,387.2,25.8,1.7,1.3,2.5,4.8,1.0,1.0,Waxing Gibbous,55.0,2.1999999999999993,Good
Bhutan,Thimphu,27.48,89.6,Asia/Thimphu,1715868000.0,2024-05-16 20:00:00,10.5,Patchy rain nearby,5.8,227.0,SW,1017.0,0.17,0.01,90.0,72.0,10.1,9.0,1.0,11.3,337.1,73.0,1.0,1.0,12.1,15.0,1.0,2.0,Waxing Gibbous,55.0,-0.40000000000000036,Good
Bolivia,Sucre,-19.04,-65.26,America/La_Paz,1715868000.0,2024-05-16 10:00:00,18.8,Sunny,5.0,20.0,NNE,1010.0,0.0,0.0,37.0,13.0,18.9,10.0,6.0,5.8,230.3,40.4,2.6,1.0,5.3,13.1,1.0,1.0,Waxing Gibbous,55.0,0.09999999999999787,Good
Bosnia and Herzegovina,Sarajevo,43.85,18.38,Europe/Sarajevo,1715868000.0,2024-05-16 16:00:00,20.0,Partly cloudy,3.6,191.0,SSW,1011.0,0.02,0.0,83.0,25.0,20.0,10.0,5.0,13.4,185.3,89.4,1.3,8.0,2.0,3.4,1.0,1.0,Waxing Gibbous,55.0,0.0,Good
Botswana,Gaborone,-24.65,25.91,Africa/Gaborone,1715868000.0,2024-05-16 16:00:00,29.0,Partly cloudy,11.2,50.0,NE,1024.0,0.0,0.0,19.0,25.0,26.9,10.0,8.0,16.6,303.8,98.7,3.1,5.4,14.8,20.1,1.0,2.0,Waxing Gibbous,55.0,-2.1000000000000014,Good
Brazil,Bras,-2.08,-58.17,America/Manaus,1715868000.0,2024-05-16 10:00:00,31.4,Partly Cloudy,6.5,74.0,ENE,1011.0,0.0,0.0,61.0,31.0,36.2,10.0,9.0,7.5,201.9,5.4,0.1,0.1,0.5,0.5,1.0,1.0,Waxing Gibbous,55.0,4.800000000000004,Good
Brunei Darussalam,Bandar Seri Begawan,4.88,114.93,Asia/Brunei,1715868000.0,2024-05-16 22:00:00,27.0,Patchy light rain with thunder,11.2,150.0,SSE,1010.0,3.01,0.12,100.0,75.0,31.3,7.0,1.0,18.4,567.4,51.5,7.4,2.4,9.5,9.8,1.0,1.0,Waxing Gibbous,55.0,4.300000000000001,Good
Bulgaria,Sofia,42.68,23.32,Europe/Sofia,1715868000.0,2024-05-16 17:00:00,11.0,Light rain,31.0,120.0,ESE,1020.0,0.15,0.01,82.0,75.0,9.4,9.0,3.0,38.2,227.0,73.0,3.5,0.4,3.0,3.7,1.0,1.0,Waxing Gibbous,55.0,-1.5999999999999996,Good
Burkina Faso,Ouagadougou,12.37,-1.52,Africa/Ouagadougou,1715868000.0,2024-05-16 14:00:00,24.0,Moderate or heavy rain with thunder,16.9,120.0,ESE,1016.0,0.23,0.01,94.0,25.0,23.9,10.0,8.0,24.1,387.2,25.8,1.1,0.7,6.1,24.5,1.0,1.0,Waxing Gibbous,55.0,-0.10000000000000142,Good
Burundi,Bujumbura,-3.38,29.36,Africa/Bujumbura,1715868000.0,2024-05-16 16:00:00,31.0,Partly cloudy,33.1,190.0,S,1012.0,0.34,0.01,55.0,25.0,38.0,10.0,6.0,40.3,373.8,44.7,0.7,0.4,6.4,12.0,1.0,1.0,Waxing Gibbous,55.0,7.0,Good
Madagascar,Ivory,-24.37,46.45,Indian/Antananarivo,1715868000.0,2024-05-16 17:00:00,27.8,Sunny,18.4,55.0,NE,1017.0,0.0,0.0,48.0,19.0,28.3,10.0,8.0,25.1,212.0,37.6,0.1,0.0,0.5,0.6,1.0,1.0,Waxing Gibbous,55.0,0.5,Good
Cape Verde,Praia,14.93,-23.51,Atlantic/Cape_Verde,1715868000.0,2024-05-16 13:00:00,26.0,Partly cloudy,31.0,50.0,NE,1014.0,0.0,0.0,58.0,25.0,27.6,10.0,6.0,38.2,193.6,68.0,0.1,0.3,4.3,18.1,1.0,1.0,Waxing Gibbous,55.0,1.6000000000000014,Good
Cambodia,Phnom Penh,11.55,104.92,Asia/Phnom_Penh,1715868000.0,2024-05-16 21:00:00,30.0,Partly cloudy,15.1,160.0,SSE,1008.0,0.0,0.0,75.0,50.0,33.2,10.0,1.0,29.5,1762.4,19.0,43.2,13.8,64.0,88.0,3.0,8.0,Waxing Gibbous,55.0,3.200000000000003,Moderate
Cameroon,Yaounde,3.87,11.52,Africa/Douala,1715868000.0,2024-05-16 15:00:00,32.0,Partly cloudy,6.8,100.0,E,1014.0,0.22,0.01,56.0,75.0,37.5,8.0,6.0,14.0,360.5,26.5,0.4,0.7,3.8,5.7,1.0,1.0,Waxing Gibbous,55.0,5.5,Good
Canada,Ottawa,45.42,-75.7,America/Toronto,1715868000.0,2024-05-16 10:00:00,16.0,Partly cloudy,11.2,60.0,ENE,1013.0,0.0,0.0,63.0,75.0,16.0,24.0,5.0,14.3,195.3,43.6,0.6,0.2,0.5,0.7,1.0,1.0,Waxing Gibbous,55.0,0.0,Good
Central African Republic,Bangui,4.37,18.58,Africa/Bangui,1715868000.0,2024-05-16 15:00:00,35.0,Partly cloudy,3.6,116.0,ESE,1009.0,0.0,0.0,53.0,50.0,36.5,10.0,9.0,9.5,303.8,3.2,0.0,0.0,0.5,1.1,1.0,1.0,Waxing Gibbous,55.0,1.5,Good
Chad,N'djamena,12.11,15.05,Africa/Douala,1715868000.0,2024-05-16 15:00:00,42.0,Partly cloudy,11.2,120.0,ESE,1006.0,0.0,0.0,25.0,50.0,43.0,8.0,10.0,18.2,320.4,47.9,0.5,0.7,34.5,148.6,2.0,3.0,Waxing Gibbous,55.0,1.0,Good
China,Beijing,39.93,116.39,Asia/Shanghai,1715868000.0,2024-05-16 22:00:00,23.0,Clear,6.8,90.0,E,1003.0,0.0,0.0,47.0,0.0,23.0,10.0,1.0,15.0,2697.0,0.0,128.9,165.9,228.2,302.1,5.0,10.0,Waxing Gibbous,55.0,0.0,Unhealthy
Bulgaria,Bogot,43.32,24.7,Europe/Sofia,1715868000.0,2024-05-16 17:00:00,19.4,Partly Cloudy,19.8,104.0,ESE,1017.0,0.0,0.0,61.0,52.0,19.4,10.0,5.0,26.2,208.6,85.1,0.7,0.2,2.8,2.9,1.0,1.0,Waxing Gibbous,55.0,0.0,Good
Comoros,Moroni,-11.7,43.24,Indian/Comoro,1715868000.0,2024-05-16 17:00:00,25.8,Patchy rain nearby,28.1,148.0,SSE,1014.0,0.04,0.0,79.0,80.0,28.2,10.0,7.0,32.3,247.0,42.9,0.3,0.2,1.4,5.0,1.0,1.0,Waxing Gibbous,55.0,2.3999999999999986,Good
Congo,Brazzaville,-4.26,15.28,Africa/Brazzaville,1715868000.0,2024-05-16 15:00:00,32.0,Patchy light rain with thunder,25.9,160.0,SSE,1009.0,0.0,0.0,56.0,25.0,33.7,8.0,9.0,33.1,627.5,73.0,2.2,2.2,15.0,31.1,1.0,2.0,Waxing Gibbous,55.0,1.7000000000000028,Good
Costa Rica,San Juan,9.97,-84.08,America/Costa_Rica,1715868000.0,2024-05-16 08:00:00,23.0,Sunny,9.0,100.0,E,1017.0,0.02,0.0,89.0,0.0,25.3,10.0,4.0,16.2,1308.4,0.3,14.6,8.6,20.8,23.5,2.0,2.0,Waxing Gibbous,55.0,2.3000000000000007,Good
Croatia,Zagreb,45.8,16.0,Europe/Zagreb,1715868000.0,2024-05-16 16:00:00,20.0,Partly cloudy,15.1,50.0,NE,1010.0,0.68,0.03,68.0,75.0,20.0,10.0,4.0,22.3,200.3,78.7,3.2,0.6,2.1,2.4,1.0,1.0,Waxing Gibbous,55.0,0.0,Good
Cuba,Havana,23.13,-82.36,America/Havana,1715868000.0,2024-05-16 10:00:00,29.0,Partly cloudy,16.9,200.0,SSW,1014.0,0.0,0.0,75.0,25.0,31.1,9.0,8.0,24.1,353.8,48.6,5.5,20.5,4.3,14.2,1.0,1.0,Waxing Gibbous,55.0,2.1000000000000014,Good
Cyprus,Nicosia,35.17,33.37,Asia/Famagusta,1715868000.0,2024-05-16 17:00:00,26.0,Partly cloudy,25.9,200.0,SSW,1016.0,0.0,0.0,54.0,25.0,26.2,10.0,6.0,33.1,191.9,108.7,0.4,1.0,4.1,6.2,1.0,1.0,Waxing Gibbous,55.0,0.1999999999999993,Good
Czech Republic,Prague,50.08,14.47,Europe/Prague,1715868000.0,2024-05-16 16:00:00,19.0,Partly cloudy,41.0,130.0,SE,1010.0,0.02,0.0,49.0,50.0,19.0,10.0,4.0,48.2,196.9,88.7,3.1,1.2,1.7,2.1,1.0,1.0,Waxing Gibbous,55.0,0.0,Good
Democratic Republic of Congo,Kinshasa,-4.3,15.3,Africa/Brazzaville,1715868000.0,2024-05-16 15:00:00,32.0,Patchy light rain with thunder,25.9,160.0,SSE,1009.0,0.0,0.0,56.0,25.0,34.1,8.0,8.0,33.1,627.5,73.0,2.2,2.2,15.0,31.1,1.0,2.0,Waxing Gibbous,55.0,2.1000000000000014,Good
Denmark,Copenhagen,55.67,12.58,Europe/Copenhagen,1715868000.0,2024-05-16 16:00:00,18.0,Sunny,34.9,100.0,E,1016.0,0.0,0.0,42.0,0.0,18.0,10.0,5.0,52.9,210.3,97.3,2.8,1.9,4.2,4.7,1.0,1.0,Waxing Gibbous,55.0,0.0,Good
Djibouti,Djibouti,11.6,43.15,Africa/Djibouti,1715868000.0,2024-05-16 17:00:00,35.0,Partly cloudy,19.1,100.0,E,1006.0,0.0,0.0,53.0,75.0,47.6,10.0,8.0,26.3,260.4,58.7,1.1,1.6,8.0,21.7,1.0,1.0,Waxing Gibbous,55.0,12.600000000000001,Good
Dominica,Roseau,15.3,-61.4,America/Dominica,1715868000.0,2024-05-16 10:00:00,30.0,Light rain,19.1,110.0,ESE,1015.0,0.04,0.0,79.0,50.0,35.7,10.0,6.0,19.2,240.3,29.7,0.8,0.5,0.9,2.5,1.0,1.0,Waxing Gibbous,55.0,5.700000000000003,Good
Dominican Republic,Santo Domingo,18.47,-69.9,America/Santo_Domingo,1715868000.0,2024-05-16 10:00:00,28.0,Partly cloudy,11.2,70.0,ENE,1015.0,0.03,0.0,84.0,25.0,30.4,10.0,6.0,18.4,440.6,41.1,19.2,41.0,15.2,20.1,1.0,2.0,Waxing Gibbous,55.0,2.3999999999999986,Good
Ecuador,Quito,-0.22,-78.5,America/Guayaquil,1715868000.0,2024-05-16 09:00:00,16.2,Sunny,3.6,71.0,ENE,1016.0,0.0,0.0,66.0,14.0,16.2,10.0,6.0,10.8,3845.2,10.9,98.7,82.0,59.3,63.5,3.0,8.0,Waxing Gibbous,55.0,0.0,Moderate
Egypt,Cairo,30.05,31.25,Africa/Cairo,1715868000.0,2024-05-16 17:00:00,32.0,Sunny,37.1,30.0,NNE,1017.0,0.0,0.0,23.0,0.0,29.8,10.0,8.0,39.3,195.3,128.8,3.6,4.2,13.6,53.2,1.0,2.0,Waxing Gibbous,55.0,-2.1999999999999993,Good
El Salvador,San Salvador,13.71,-89.2,America/El_Salvador,1715868000.0,2024-05-16 08:00:00,26.0,Partly cloudy,6.8,70.0,ENE,1011.0,0.33,0.01,89.0,50.0,28.0,10.0,6.0,14.0,567.4,14.5,6.7,14.3,29.2,41.4,2.0,3.0,Waxing Gibbous,55.0,2.0,Good
Equatorial Guinea,Malabo,3.75,8.78,Africa/Malabo,1715868000.0,2024-05-16 15:00:00,32.0,Partly cloudy,15.1,340.0,NNW,1009.0,0.03,0.0,80.0,50.0,42.3,10.0,6.0,22.3,287.1,24.7,0.0,0.0,1.3,1.8,1.0,1.0,Waxing Gibbous,55.0,10.299999999999997,Good
Eritrea,Asmara,15.33,38.93,Africa/Asmara,1715868000.0,2024-05-16 17:00:00,22.2,Moderate rain at times,10.8,30.0,NNE,1012.0,0.67,0.03,52.0,82.0,24.5,10.0,5.0,18.9,183.6,47.2,0.2,0.2,14.6,53.3,1.0,2.0,Waxing Gibbous,55.0,2.3000000000000007,Good
Estonia,Tallinn,59.43,24.73,Europe/Tallinn,1715868000.0,2024-05-16 17:00:00,20.0,Sunny,29.9,280.0,W,1023.0,0.0,0.0,37.0,0.0,20.0,10.0,4.0,42.3,208.6,120.2,2.4,1.5,8.0,8.4,1.0,1.0,Waxing Gibbous,55.0,0.0,Good
Swaziland,Mbabane,-26.32,31.13,Africa/Mbabane,1715868000.0,2024-05-16 16:00:00,22.5,Sunny,7.6,93.0,E,1021.0,0.0,0.0,38.0,2.0,24.1,10.0,7.0,10.2,283.7,54.4,1.3,2.3,17.9,27.2,2.0,2.0,Waxing Gibbous,55.0,1.6000000000000014,Good
Ethiopia,Addis Ababa,9.03,38.7,Africa/Addis_Ababa,1715868000.0,2024-05-16 17:00:00,26.0,Partly cloudy,11.2,150.0,SSE,1024.0,0.0,0.0,39.0,75.0,26.2,10.0,6.0,22.0,1335.1,57.9,1.5,2.5,24.0,84.4,2.0,3.0,Waxing Gibbous,55.0,0.1999999999999993,Good
Fiji Islands,Suva,-18.13,178.42,Pacific/Fiji,1715868000.0,2024-05-17 02:00:00,24.0,Partly cloudy,3.6,19.0,NNE,1011.0,0.4,0.02,100.0,75.0,26.4,10.0,1.0,18.5,205.3,16.3,1.6,1.3,1.7,2.0,1.0,1.0,Waxing Gibbous,55.0,2.3999999999999986,Good
Finland,Helsinki,60.18,24.93,Europe/Helsinki,1715868000.0,2024-05-16 17:00:00,26.0,Sunny,24.1,260.0,W,1021.0,0.0,0.0,30.0,0.0,26.0,10.0,5.0,45.9,203.6,101.6,3.0,1.2,4.9,6.1,1.0,1.0,Waxing Gibbous,55.0,0.0,Good
France,Paris,48.87,2.33,Europe/Paris,1715868000.0,2024-05-16 16:00:00,18.0,Partly cloudy,11.2,230.0,SW,1006.0,0.04,0.0,52.0,75.0,18.0,10.0,4.0,17.8,213.6,88.7,5.2,1.4,1.6,2.5,1.0,1.0,Waxing Gibbous,55.0,0.0,Good
Gabon,Libreville,0.38,9.45,Africa/Libreville,1715868000.0,2024-05-16 15:00:00,31.0,Partly cloudy,13.0,240.0,WSW,1009.0,1.17,0.05,71.0,25.0,40.2,10.0,6.0,18.7,540.7,70.1,5.6,7.5,19.4,27.7,2.0,2.0,Waxing Gibbous,55.0,9.200000000000003,Good
Gambia,Banjul,13.45,-16.58,Africa/Banjul,1715868000.0,2024-05-16 14:00:00,30.0,Sunny,13.0,260.0,W,1012.0,0.0,0.0,52.0,0.0,35.0,10.0,6.0,24.9,217.0,79.4,0.2,2.1,21.8,108.4,2.0,2.0,Waxing Gibbous,55.0,5.0,Good
Georgia,Tbilisi,41.73,44.79,Asia/Tbilisi,1715868000.0,2024-05-16 18:00:00,13.0,Partly cloudy,9.0,210.0,SSW,1018.0,0.0,0.0,88.0,62.0,12.5,10.0,5.0,9.5,186.9,72.2,1.1,0.1,0.7,1.0,1.0,1.0,Waxing Gibbous,55.0,-0.5,Good
Germany,Berlin,52.52,13.4,Europe/Berlin,1715868000.0,2024-05-16 16:00:00,24.0,Sunny,38.9,110.0,ESE,1009.0,0.0,0.0,31.0,0.0,24.4,10.0,5.0,46.1,198.6,105.9,2.7,2.4,4.5,5.0,1.0,1.0,Waxing Gibbous,55.0,0.3999999999999986,Good
Ghana,Accra,5.55,-0.22,Africa/Accra,1715868000.0,2024-05-16 14:00:00,31.0,Partly cloudy,16.9,170.0,S,1011.0,0.0,0.0,71.0,25.0,38.1,10.0,7.0,21.9,317.1,45.1,2.0,1.2,3.4,7.7,1.0,1.0,Waxing Gibbous,55.0,7.100000000000001,Good
Greece,Athens,37.98,23.72,Europe/Athens,1715868000.0,2024-05-16 17:00:00,21.0,Partly cloudy,19.1,20.0,NNE,1020.0,0.0,0.0,43.0,25.0,21.0,10.0,6.0,26.3,203.6,121.6,5.0,6.0,7.7,19.6,1.0,1.0,Waxing Gibbous,55.0,0.0,Good
Grenada,Saint George's,12.05,-61.75,America/Grenada,1715868000.0,2024-05-16 10:00:00,31.0,Partly cloudy,24.1,120.0,ESE,1014.0,0.03,0.0,66.0,25.0,37.9,10.0,6.0,31.3,240.3,24.7,1.1,1.0,2.4,10.2,1.0,1.0,Waxing Gibbous,55.0,6.899999999999999,Good
Guatemala,Guatemala City,14.62,-90.53,America/Guatemala,1715868000.0,2024-05-16 08:00:00,21.0,Partly cloudy,3.6,10.0,N,1021.0,0.27,0.01,83.0,75.0,21.0,10.0,5.0,5.0,1976.0,63.7,21.4,26.0,152.7,212.3,5.0,10.0,Waxing Gibbous,55.0,0.0,Unhealthy
Guinea,Conakry,9.51,-13.71,Africa/Conakry,1715868000.0,2024-05-16 14:00:00,31.0,Partly cloudy,11.2,300.0,WNW,1012.0,0.05,0.0,71.0,50.0,40.1,10.0,6.0,21.2,280.4,25.0,0.2,0.0,0.5,5.4,1.0,1.0,Waxing Gibbous,55.0,9.100000000000001,Good
Guinea-Bissau,Bissau,11.85,-15.58,Africa/Bissau,1715868000.0,2024-05-16 14:00:00,34.0,Partly cloudy,9.0,290.0,WNW,1012.0,0.0,0.0,44.0,25.0,39.8,9.0,8.0,22.4,205.3,53.6,0.1,0.5,13.1,50.3,1.0,2.0,Waxing Gibbous,55.0,5.799999999999997,Good
Guyana,Georgetown,6.8,-58.17,America/Guyana,1715868000.0,2024-05-16 10:00:00,29.0,Partly cloudy,3.6,78.0,ENE,1012.0,0.03,0.0,84.0,75.0,32.3,10.0,6.0,11.2,220.3,41.8,4.6,5.3,1.1,1.6,1.0,1.0,Waxing Gibbous,55.0,3.299999999999997,Good
Haiti,Port-Au-Prince,18.54,-72.34,America/Port-au-Prince,1715868000.0,2024-05-16 10:00:00,30.0,Partly cloudy,6.8,110.0,ESE,1015.0,0.03,0.0,61.0,25.0,33.7,8.0,7.0,14.0,827.8,147.3,5.4,11.3,19.0,34.0,2.0,2.0,Waxing Gibbous,55.0,3.700000000000003,Good
Vatican City,Vatican City,41.9,12.45,Europe/Rome,1715868000.0,2024-05-16 16:00:00,22.0,Partly cloudy,20.2,230.0,SW,1005.0,0.0,0.0,69.0,25.0,24.5,10.0,6.0,27.4,227.0,98.7,2.8,2.6,63.0,78.8,3.0,8.0,Waxing Gibbous,55.0,2.5,Moderate
Honduras,Tegucigalpa,14.1,-87.22,America/Tegucigalpa,1715868000.0,2024-05-16 08:00:00,25.0,Partly cloudy,4.0,30.0,NNE,1018.0,0.01,0.0,69.0,75.0,26.5,10.0,6.0,5.8,554.1,18.2,6.9,1.0,19.0,29.4,2.0,2.0,Waxing Gibbous,55.0,1.5,Good
Hungary,Budapest,47.5,19.08,Europe/Budapest,1715868000.0,2024-05-16 16:00:00,22.0,Sunny,31.0,100.0,E,1014.0,0.0,0.0,38.0,0.0,24.4,10.0,5.0,38.2,195.3,87.3,2.4,1.5,2.1,2.4,1.0,1.0,Waxing Gibbous,55.0,2.3999999999999986,Good
Iceland,Grindavik,63.83,-22.43,Atlantic/Reykjavik,1715868000.0,2024-05-16 14:00:00,9.0,Partly cloudy,19.1,220.0,SW,1014.0,0.09,0.0,66.0,75.0,7.1,10.0,2.0,26.3,205.3,94.4,0.2,0.1,0.5,0.6,1.0,1.0,Waxing Gibbous,55.0,-1.9000000000000004,Good
India,New Delhi,28.6,77.2,Asia/Kolkata,1715868000.0,2024-05-16 19:30:00,38.0,Mist,11.2,50.0,NE,1005.0,0.0,0.0,23.0,0.0,37.1,3.5,1.0,13.4,741.0,120.2,22.6,22.9,44.0,80.8,3.0,5.0,Waxing Gibbous,55.0,-0.8999999999999986,Moderate
Iran,Tehran,35.73,51.33,Asia/Tehran,1715868000.0,2024-05-16 17:30:00,26.0,Partly cloudy,25.9,300.0,WNW,1015.0,0.0,0.0,17.0,25.0,24.5,10.0,6.0,33.1,433.9,53.6,59.0,21.7,5.1,11.0,1.0,1.0,Waxing Gibbous,55.0,-1.5,Good
Iraq,Baghdad,33.34,44.39,Asia/Baghdad,1715868000.0,2024-05-16 17:00:00,35.0,Partly cloudy,19.1,20.0,NNE,1010.0,0.0,0.0,16.0,50.0,33.2,10.0,8.0,24.9,250.3,176.0,8.0,8.7,14.5,41.1,1.0,2.0,Waxing Gibbous,55.0,-1.7999999999999972,Good
Ireland,Dublin,53.33,-6.25,Europe/Dublin,1715868000.0,2024-05-16 15:00:00,19.0,Partly cloudy,15.1,50.0,NE,1007.0,0.0,0.0,64.0,75.0,19.0,10.0,4.0,22.3,198.6,88.7,8.7,4.8,3.1,3.9,1.0,1.0,Waxing Gibbous,55.0,0.0,Good
Israel,Jerusalem,31.78,35.23,Asia/Jerusalem,1715868000.0,2024-05-16 17:00:00,25.0,Sunny,22.0,320.0,NW,1017.0,0.0,0.0,51.0,0.0,25.2,10.0,6.0,40.4,190.3,123.0,4.4,1.9,6.5,9.4,1.0,1.0,Waxing Gibbous,55.0,0.1999999999999993,Good
Italy,Rome,41.9,12.48,Europe/Rome,1715868000.0,2024-05-16 16:00:00,22.0,Partly cloudy,20.2,230.0,SW,1005.0,0.0,0.0,69.0,25.0,24.5,10.0,6.0,27.4,227.0,98.7,2.8,2.6,63.0,78.8,3.0,8.0,Waxing Gibbous,55.0,2.5,Moderate
Jamaica,Norman Gardens,17.97,-76.75,America/Jamaica,1715868000.0,2024-05-16 09:00:00,31.0,Partly cloudy,19.1,130.0,SE,1014.0,0.0,0.0,66.0,25.0,34.6,10.0,8.0,26.3,467.3,38.3,3.8,6.1,2.9,7.4,1.0,1.0,Waxing Gibbous,55.0,3.6000000000000014,Good
Japan,Tokyo,35.69,139.69,Asia/Tokyo,1715868000.0,2024-05-16 23:00:00,18.3,Clear,19.1,190.0,S,1005.0,0.0,0.0,44.0,0.0,18.3,16.0,1.0,55.7,277.0,103.0,25.0,15.1,9.5,11.9,1.0,1.0,Waxing Gibbous,55.0,0.0,Good
Jordan,Amman,31.95,35.93,Asia/Amman,1715868000.0,2024-05-16 17:00:00,25.0,Sunny,22.0,320.0,NW,1020.0,0.0,0.0,21.0,0.0,24.7,7.0,6.0,29.7,181.9,140.2,3.9,3.0,6.7,10.5,1.0,1.0,Waxing Gibbous,55.0,-0.3000000000000007,Good
Kazakhstan,Astana,51.18,71.43,Asia/Almaty,1715868000.0,2024-05-16 19:00:00,15.0,Sunny,19.1,80.0,E,1020.0,0.0,0.0,41.0,0.0,14.0,10.0,5.0,19.4,223.6,84.4,6.5,22.2,5.0,5.1,1.0,1.0,Waxing Gibbous,55.0,-1.0,Good
Kenya,Nairobi,-1.28,36.82,Africa/Nairobi,1715868000.0,2024-05-16 17:00:00,25.0,Partly cloudy,11.2,200.0,SSW,1020.0,0.95,0.04,54.0,75.0,27.0,10.0,6.0,13.6,881.2,91.6,7.1,8.8,18.2,40.2,2.0,2.0,Waxing Gibbous,55.0,2.0,Good
Kiribati,Tarawa,-0.88,169.53,Pacific/Tarawa,1715868000.0,2024-05-17 02:00:00,28.8,Patchy rain nearby,17.3,42.0,NE,1006.0,0.01,0.0,77.0,69.0,33.5,10.0,1.0,23.2,217.0,10.2,0.0,0.0,1.3,3.1,1.0,1.0,Waxing Gibbous,55.0,4.699999999999999,Good
Kuwait,Kuwait City,29.37,47.96,Asia/Kuwait,1715868000.0,2024-05-16 17:00:00,29.0,Sunny,22.0,40.0,NE,1006.0,0.0,0.0,51.0,0.0,30.3,16.0,8.0,46.4,440.6,53.6,63.1,15.7,19.6,40.9,2.0,2.0,Waxing Gibbous,55.0,1.3000000000000007,Good
Kyrghyzstan,Bishkek,42.87,74.6,Asia/Bishkek,1715868000.0,2024-05-16 20:00:00,15.3,Light rain,13.3,306.0,NW,1022.0,1.23,0.05,97.0,100.0,15.3,9.0,4.0,15.3,223.6,63.7,5.4,1.5,1.3,1.7,1.0,1.0,Waxing Gibbous,55.0,0.0,Good
Indonesia,Laos,-8.18,114.32,Asia/Jakarta,1715868000.0,2024-05-16 21:00:00,20.7,Patchy rain nearby,4.3,172.0,S,1013.0,0.25,0.01,95.0,75.0,20.7,9.0,1.0,9.1,988.0,13.2,14.6,2.7,22.7,36.4,2.0,2.0,Waxing Gibbous,55.0,0.0,Good
Latvia,Riga,56.95,24.1,Europe/Riga,1715868000.0,2024-05-16 17:00:00,21.0,Sunny,6.1,280.0,W,1024.0,0.0,0.0,40.0,0.0,21.0,10.0,5.0,7.0,270.4,75.1,8.2,3.0,13.2,15.1,1.0,2.0,Waxing Gibbous,55.0,0.0,Good
Lebanon,Beirut,33.87,35.51,Asia/Beirut,1715868000.0,2024-05-16 17:00:00,23.0,Sunny,6.8,280.0,W,1020.0,0.0,0.0,61.0,0.0,24.9,10.0,6.0,8.7,205.3,110.2,0.9,2.3,8.3,15.0,1.0,1.0,Waxing Gibbous,55.0,1.8999999999999986,Good
Lesotho,Maseru,-29.32,27.48,Africa/Johannesburg,1715868000.0,2024-05-16 16:00:00,23.4,Sunny,18.4,213.0,SSW,1021.0,0.0,0.0,24.0,4.0,23.3,10.0,7.0,21.1,240.3,63.7,1.1,1.0,9.8,21.0,1.0,1.0,Waxing Gibbous,55.0,-0.09999999999999787,Good
Liberia,Monrovia,6.31,-10.8,Africa/Monrovia,1715868000.0,2024-05-16 14:00:00,31.0,Partly cloudy,9.0,230.0,SW,1012.0,0.0,0.0,75.0,75.0,37.5,10.0,7.0,13.2,320.4,41.5,0.2,0.1,0.8,3.6,1.0,1.0,Waxing Gibbous,55.0,6.5,Good
Thailand,Nan,18.78,100.78,Asia/Bangkok,1715868000.0,2024-05-16 21:00:00,27.0,Clear,3.6,252.0,WSW,1008.0,0.16,0.01,89.0,0.0,29.5,10.0,1.0,5.6,527.4,8.0,5.7,1.6,8.0,9.1,1.0,1.0,Waxing Gibbous,55.0,2.5,Good
Liechtenstein,Vaduz,47.13,9.52,Europe/Vaduz,1715868000.0,2024-05-16 16:00:00,19.0,Partly cloudy,13.0,270.0,W,1004.0,0.92,0.04,60.0,25.0,19.0,10.0,3.0,20.2,185.3,79.4,1.5,0.3,1.4,1.5,1.0,1.0,Waxing Gibbous,55.0,0.0,Good
Lithuania,Vilnius,54.68,25.32,Europe/Vilnius,1715868000.0,2024-05-16 17:00:00,18.0,Sunny,13.0,150.0,SSE,1025.0,0.01,0.0,34.0,0.0,18.0,10.0,4.0,20.2,201.9,88.0,1.8,1.2,2.3,3.1,1.0,1.0,Waxing Gibbous,55.0,0.0,Good
Luxembourg,Luxembourg,49.61,6.13,Europe/Luxembourg,1715868000.0,2024-05-16 16:00:00,17.0,Partly cloudy,16.9,260.0,W,1006.0,0.03,0.0,63.0,50.0,17.0,10.0,4.0,17.4,195.3,54.4,7.2,0.2,1.7,1.8,1.0,1.0,Waxing Gibbous,55.0,0.0,Good
Madagascar,Antananarivo,-18.92,47.52,Indian/Antananarivo,1715868000.0,2024-05-16 17:00:00,19.0,Partly cloudy,19.1,130.0,SE,1023.0,0.0,0.0,64.0,50.0,19.0,10.0,6.0,23.6,377.2,42.6,1.6,1.7,3.5,7.8,1.0,1.0,Waxing Gibbous,55.0,0.0,Good
Malawi,Lilongwe,-13.98,33.78,Africa/Blantyre,1715868000.0,2024-05-16 16:00:00,24.0,Partly cloudy,15.1,230.0,SW,1021.0,0.0,0.0,47.0,75.0,24.9,10.0,7.0,16.6,227.0,42.2,0.3,0.4,0.7,2.0,1.0,1.0,Waxing Gibbous,55.0,0.8999999999999986,Good
Malaysia,Kuala Lumpur,3.17,101.7,Asia/Kuala_Lumpur,1715868000.0,2024-05-16 22:00:00,25.0,Patchy light rain with thunder,3.6,10.0,N,1010.0,0.02,0.0,100.0,50.0,27.9,6.0,1.0,9.1,8972.2,0.0,131.6,103.0,131.5,155.7,4.0,10.0,Waxing Gibbous,55.0,2.8999999999999986,Moderate
Maldives,Felidhoo,3.48,73.53,Indian/Maldives,1715868000.0,2024-05-16 19:00:00,29.6,Partly Cloudy,22.3,279.0,W,1009.0,0.0,0.0,77.0,38.0,35.7,10.0,1.0,30.8,212.0,27.9,0.0,0.1,1.2,4.1,1.0,1.0,Waxing Gibbous,55.0,6.100000000000001,Good
Mali,Bamako,12.65,-8.0,Africa/Bamako,1715868000.0,2024-05-16 14:00:00,31.0,Partly cloudy,20.2,240.0,WSW,1013.0,0.01,0.0,55.0,25.0,29.7,10.0,8.0,27.4,333.8,21.5,0.3,0.4,1.2,2.4,1.0,1.0,Waxing Gibbous,55.0,-1.3000000000000007,Good
Malta,Valletta,35.9,14.51,Europe/Malta,1715868000.0,2024-05-16 16:00:00,26.0,Sunny,11.2,40.0,NE,1006.0,0.0,0.0,61.0,0.0,28.6,9.0,5.0,40.8,230.3,83.0,2.5,0.8,33.5,71.6,2.0,3.0,Waxing Gibbous,55.0,2.6000000000000014,Good
Marshall Islands,Majuro,7.1,171.38,Pacific/Majuro,1715868000.0,2024-05-17 02:00:00,28.0,Overcast,16.9,70.0,ENE,1009.0,1.61,0.06,84.0,100.0,33.0,24.0,1.0,48.3,181.9,37.6,0.0,0.1,2.1,5.3,1.0,1.0,Waxing Gibbous,55.0,5.0,Good
Mauritania,Nouakchott,18.09,-15.98,Africa/Nouakchott,1715868000.0,2024-05-16 14:00:00,22.7,Sunny,25.9,294.0,WNW,1011.0,0.0,0.0,65.0,0.0,24.8,10.0,6.0,48.5,201.9,74.4,0.2,0.5,28.3,139.7,2.0,3.0,Waxing Gibbous,55.0,2.1000000000000014,Good
Mauritius,Port Louis,-20.16,57.5,Indian/Mauritius,1715868000.0,2024-05-16 18:00:00,24.0,Overcast,22.0,130.0,SE,1019.0,0.01,0.0,74.0,50.0,25.8,10.0,1.0,39.7,233.7,43.3,2.4,1.5,2.7,9.1,1.0,1.0,Waxing Gibbous,55.0,1.8000000000000007,Good
Mexico,Mexico City,19.43,-99.13,America/Mexico_City,1715868000.0,2024-05-16 08:00:00,13.0,Sunny,6.8,60.0,ENE,1028.0,0.0,0.0,67.0,0.0,13.6,8.0,5.0,14.0,1602.2,1.0,51.4,20.0,54.3,72.4,3.0,7.0,Waxing Gibbous,55.0,0.5999999999999996,Moderate
Micronesia,Palikir,6.92,158.15,Pacific/Pohnpei,1715868000.0,2024-05-17 01:00:00,25.0,Overcast,4.0,190.0,S,1011.0,0.36,0.01,94.0,100.0,26.9,24.0,1.0,14.4,178.6,24.0,0.0,0.0,0.5,1.2,1.0,1.0,Waxing Gibbous,55.0,1.8999999999999986,Good
Iran,Chi Chi Khvar,36.26,46.59,Asia/Tehran,1715868000.0,2024-05-16 17:30:00,17.2,Sunny,18.4,221.0,SW,1015.0,0.0,0.0,44.0,18.0,17.2,10.0,5.0,21.1,183.6,117.3,0.8,0.6,4.3,14.3,1.0,1.0,Waxing Gibbous,55.0,0.0,Good
Monaco,Monaco,43.73,7.42,Europe/Monaco,1715868000.0,2024-05-16 16:00:00,20.0,Partly cloudy,29.9,210.0,SSW,1004.0,0.4,0.02,73.0,25.0,20.0,10.0,4.0,37.1,195.3,91.6,1.2,0.4,1.9,2.2,1.0,1.0,Waxing Gibbous,55.0,0.0,Good
Mongolia,Ulaanbaatar,47.92,106.92,Asia/Ulaanbaatar,1715868000.0,2024-05-16 22:00:00,16.0,Clear,11.2,210.0,SSW,1006.0,0.0,0.0,36.0,0.0,16.0,10.0,1.0,17.0,180.2,50.1,2.7,5.1,1.1,1.2,1.0,1.0,Waxing Gibbous,55.0,0.0,Good
Montenegro,Podgorica,42.44,19.26,Europe/Podgorica,1715868000.0,2024-05-16 16:00:00,24.0,Sunny,3.6,190.0,S,1010.0,0.0,0.0,57.0,0.0,25.5,10.0,6.0,6.2,185.3,91.6,0.4,0.3,1.9,6.8,1.0,1.0,Waxing Gibbous,55.0,1.5,Good
Morocco,Rabat,34.03,-6.84,Africa/Casablanca,1715868000.0,2024-05-16 15:00:00,20.0,Partly cloudy,19.1,350.0,N,1013.0,0.0,0.0,53.0,50.0,20.0,7.0,5.0,23.2,185.3,117.3,0.2,0.8,2.2,7.1,1.0,1.0,Waxing Gibbous,55.0,0.0,Good
Mozambique,Maputo,-25.97,32.59,Africa/Maputo,1715868000.0,2024-05-16 16:00:00,26.0,Partly cloudy,15.1,100.0,E,1020.0,0.0,0.0,61.0,25.0,27.2,10.0,7.0,15.9,360.5,47.9,1.1,1.2,5.9,24.2,1.0,1.0,Waxing Gibbous,55.0,1.1999999999999993,Good
Myanmar,Pathein,16.78,94.73,Asia/Yangon,1715868000.0,2024-05-16 20:30:00,30.3,Clear,14.4,285.0,WNW,1008.0,0.0,0.0,71.0,11.0,35.9,10.0,1.0,19.7,247.0,25.0,0.4,0.1,3.2,5.9,1.0,1.0,Waxing Gibbous,55.0,5.599999999999998,Good
Namibia,Windhoek,-22.57,17.08,Africa/Windhoek,1715868000.0,2024-05-16 16:00:00,24.0,Sunny,20.2,70.0,ENE,1029.0,0.0,0.0,24.0,0.0,23.3,10.0,7.0,30.6,223.6,69.4,0.3,1.5,6.3,8.5,1.0,1.0,Waxing Gibbous,55.0,-0.6999999999999993,Good
Turkey,Yaren,39.55,27.62,Europe/Istanbul,1715868000.0,2024-05-16 17:00:00,21.0,Sunny,11.2,340.0,NNW,1020.0,0.0,0.0,46.0,0.0,21.0,10.0,5.0,20.1,203.6,110.2,1.2,1.4,8.7,9.6,1.0,1.0,Waxing Gibbous,55.0,0.0,Good
Nepal,Kathmandu,27.72,85.32,Asia/Kathmandu,1715868000.0,2024-05-16 19:45:00,25.0,Partly cloudy,9.0,200.0,SSW,1016.0,0.0,0.0,57.0,25.0,25.0,8.0,1.0,16.2,620.8,65.1,13.2,3.6,33.6,56.4,2.0,3.0,Waxing Gibbous,55.0,0.0,Good
Netherlands,Amsterdam,52.37,4.89,Europe/Amsterdam,1715868000.0,2024-05-16 16:00:00,20.0,Partly cloudy,20.2,180.0,S,1003.0,2.42,0.1,68.0,50.0,20.0,10.0,4.0,27.4,263.7,29.0,32.9,3.2,12.1,13.0,1.0,2.0,Waxing Gibbous,55.0,0.0,Good
New Zealand,Wellington,-41.3,174.78,Pacific/Auckland,1715868000.0,2024-05-17 02:00:00,12.0,Partly cloudy,24.1,170.0,S,1022.0,0.0,0.0,67.0,75.0,10.4,10.0,1.0,31.3,223.6,41.8,0.4,0.3,1.6,4.8,1.0,1.0,Waxing Gibbous,55.0,-1.5999999999999996,Good
Nicaragua,Managua,12.15,-86.27,America/Managua,1715868900.0,2024-05-16 08:15:00,28.0,Overcast,6.8,360.0,N,1010.0,0.0,0.0,84.0,50.0,31.8,9.0,7.0,7.1,467.3,10.6,10.1,6.5,12.5,17.7,1.0,2.0,Waxing Gibbous,55.0,3.8000000000000007,Good
Niger,Niamey,13.52,2.12,Africa/Niamey,1715868000.0,2024-05-16 15:00:00,40.0,Sunny,29.9,280.0,W,1009.0,0.0,0.0,23.0,0.0,40.9,7.0,10.0,37.1,303.8,37.9,0.3,0.4,42.4,216.4,3.0,5.0,Waxing Gibbous,55.0,0.8999999999999986,Moderate
Nigeria,Abuja,9.18,7.18,Africa/Lagos,1715868900.0,2024-05-16 15:15:00,35.2,Partly Cloudy,10.1,210.0,SSW,1007.0,0.0,0.0,43.0,32.0,39.2,10.0,9.0,11.6,440.6,36.8,0.4,0.1,7.7,14.5,1.0,1.0,Waxing Gibbous,55.0,4.0,Good
North Korea,Pyongyang,39.02,125.75,Asia/Pyongyang,1715868900.0,2024-05-16 23:15:00,11.6,Clear,6.1,163.0,SSE,1010.0,0.0,0.0,46.0,14.0,11.3,10.0,1.0,12.7,287.1,90.1,4.6,4.1,22.6,28.0,2.0,2.0,Waxing Gibbous,55.0,-0.29999999999999893,Good
Macedonia,Skopje,42.0,21.43,Europe/Skopje,1715868000.0,2024-05-16 16:00:00,14.0,Overcast,9.0,140.0,SE,1019.0,0.0,0.0,94.0,100.0,12.6,10.0,4.0,21.6,207.0,90.8,3.0,7.0,5.2,5.4,1.0,1.0,Waxing Gibbous,55.0,-1.4000000000000004,Good
Norway,Oslo,59.92,10.75,Europe/Oslo,1715868900.0,2024-05-16 16:15:00,18.0,Sunny,46.1,150.0,SSE,1017.0,0.0,0.0,42.0,0.0,18.0,10.0,5.0,53.3,190.3,114.4,5.2,6.0,7.1,7.9,1.0,1.0,Waxing Gibbous,55.0,0.0,Good
Oman,Muscat,23.61,58.59,Asia/Muscat,1715868900.0,2024-05-16 18:15:00,33.0,Sunny,9.0,80.0,E,1007.0,0.0,0.0,59.0,0.0,37.9,10.0,8.0,16.2,198.6,121.6,0.9,2.1,28.1,76.6,2.0,3.0,Waxing Gibbous,55.0,4.899999999999999,Good
Pakistan,Islamabad,33.7,73.17,Asia/Karachi,1715868000.0,2024-05-16 19:00:00,33.0,Sunny,11.5,331.0,NNW,1006.0,0.0,0.0,22.0,0.0,31.2,10.0,8.0,21.5,1255.0,47.2,67.9,4.3,26.9,46.0,2.0,3.0,Waxing Gibbous,55.0,-1.8000000000000007,Good
Palau,Meyungs,7.35,134.45,Pacific/Palau,1715868900.0,2024-05-16 23:15:00,27.0,Partly cloudy,3.6,10.0,N,1011.0,0.01,0.0,89.0,50.0,30.6,23.0,1.0,22.1,176.9,23.6,0.1,0.1,0.7,2.4,1.0,1.0,Waxing Gibbous,55.0,3.6000000000000014,Good
Bolivia,National,-11.18,-67.08,America/La_Paz,1715868900.0,2024-05-16 10:15:00,26.0,Sunny,3.6,53.0,NE,1015.0,0.0,0.0,55.0,7.0,26.9,10.0,8.0,3.7,195.3,5.3,0.0,0.0,1.4,1.4,1.0,1.0,Waxing Gibbous,55.0,0.8999999999999986,Good
Panama,Panama City,8.97,-79.53,America/Panama,1715868900.0,2024-05-16 09:15:00,28.0,Moderate or heavy rain shower,9.0,130.0,SE,1011.0,0.33,0.01,84.0,50.0,32.1,8.0,6.0,9.5,540.7,11.8,11.0,10.5,2.3,2.7,1.0,1.0,Waxing Gibbous,55.0,4.100000000000001,Good
Papua New Guinea,Port Moresby,-9.46,147.19,Pacific/Port_Moresby,1715868900.0,2024-05-17 00:15:00,24.0,Partly cloudy,3.6,111.0,ESE,1009.0,0.08,0.0,100.0,25.0,26.5,10.0,1.0,15.1,243.7,8.1,13.4,12.2,4.2,4.8,1.0,1.0,Waxing Gibbous,55.0,2.5,Good
Paraguay,Pasto,-19.45,-61.15,America/La_Paz,1715868900.0,2024-05-16 10:15:00,24.5,Sunny,26.3,351.0,N,1011.0,0.0,0.0,50.0,7.0,25.5,10.0,7.0,30.2,277.0,14.3,0.1,0.0,6.8,6.9,1.0,1.0,Waxing Gibbous,55.0,1.0,Good
Peru,Lima,-12.05,-77.05,America/Lima,1715868000.0,2024-05-16 09:00:00,19.0,Sunny,7.2,184.0,S,1015.0,0.0,0.0,81.0,19.0,19.0,10.0,6.0,8.5,701.0,16.3,27.4,20.0,21.5,40.0,2.0,2.0,Waxing Gibbous,55.0,0.0,Good
Philippines,Manila,14.6,120.98,Asia/Manila,1715868000.0,2024-05-16 22:00:00,31.0,Partly cloudy,13.0,120.0,ESE,1010.0,0.49,0.02,71.0,50.0,38.1,10.0,1.0,15.2,1401.9,22.0,45.2,23.6,42.4,63.7,3.0,5.0,Waxing Gibbous,55.0,7.100000000000001,Moderate
Poland,Warsaw,52.25,21.0,Europe/Warsaw,1715868000.0,2024-05-16 16:00:00,21.0,Sunny,31.0,120.0,ESE,1019.0,0.0,0.0,28.0,0.0,21.0,10.0,5.0,38.2,210.3,98.7,1.5,2.3,3.3,3.9,1.0,1.0,Waxing Gibbous,55.0,0.0,Good
Portugal,Lisbon,38.72,-9.13,Europe/Lisbon,1715868900.0,2024-05-16 15:15:00,19.0,Partly cloudy,20.2,240.0,WSW,1012.0,0.0,0.0,60.0,75.0,19.0,10.0,5.0,21.5,191.9,94.4,1.7,1.3,1.4,3.7,1.0,1.0,Waxing Gibbous,55.0,0.0,Good
Qatar,Doha,25.29,51.53,Asia/Qatar,1715868900.0,2024-05-16 17:15:00,35.0,Sunny,19.1,90.0,E,1006.0,0.0,0.0,35.0,0.0,37.1,10.0,8.0,43.6,287.1,34.0,56.2,55.8,30.2,121.4,2.0,3.0,Waxing Gibbous,55.0,2.1000000000000014,Good
Romania,Bucharest,44.43,26.1,Europe/Bucharest,1715868900.0,2024-05-16 17:15:00,20.0,Sunny,19.1,90.0,E,1021.0,0.0,0.0,32.0,0.0,20.0,10.0,5.0,22.3,223.6,93.0,4.3,1.9,2.9,3.7,1.0,1.0,Waxing Gibbous,55.0,0.0,Good
Russia,Moscow,55.75,37.62,Europe/Moscow,1715868900.0,2024-05-16 17:15:00,20.0,Sunny,15.1,270.0,W,1020.0,0.01,0.0,37.0,0.0,20.0,10.0,4.0,16.5,280.4,65.8,37.4,23.8,5.0,7.0,1.0,1.0,Waxing Gibbous,55.0,0.0,Good
Rwanda,Kigali,-1.95,30.06,Africa/Kigali,1715868900.0,2024-05-16 16:15:00,28.0,Partly cloudy,11.2,130.0,SE,1018.0,0.22,0.01,42.0,50.0,30.3,10.0,6.0,18.4,300.4,30.4,1.1,1.0,3.6,6.0,1.0,1.0,Waxing Gibbous,55.0,2.3000000000000007,Good
Saint Kitts and Nevis,Basseterre,17.3,-62.72,America/St_Kitts,1715868900.0,2024-05-16 10:15:00,30.0,Partly cloudy,15.1,90.0,E,1015.0,0.0,0.0,75.0,50.0,35.9,10.0,7.0,23.6,217.0,36.1,0.6,0.7,1.2,3.8,1.0,1.0,Waxing Gibbous,55.0,5.899999999999999,Good
Saint Lucia,Castries,14.0,-61.0,America/St_Lucia,1715868000.0,2024-05-16 10:00:00,30.0,Partly cloudy,20.2,100.0,E,1015.0,0.01,0.0,70.0,75.0,34.3,10.0,6.0,25.1,230.3,23.6,0.1,0.1,1.2,3.8,1.0,1.0,Waxing Gibbous,55.0,4.299999999999997,Good
Saint Vincent and the Grenadines,Kingstown,13.13,-61.22,America/St_Vincent,1715868900.0,2024-05-16 10:15:00,30.0,Partly cloudy,33.1,100.0,E,1014.0,0.0,0.0,75.0,25.0,36.1,10.0,7.0,40.3,247.0,32.2,0.8,1.3,3.8,14.6,1.0,1.0,Waxing Gibbous,55.0,6.100000000000001,Good
Samoa,Apia,-13.83,-171.73,Pacific/Apia,1715868900.0,2024-05-17 03:15:00,27.0,Moderate rain,13.0,80.0,E,1009.0,0.44,0.02,89.0,75.0,30.3,9.0,1.0,33.9,207.0,40.1,0.4,0.2,1.6,3.2,1.0,1.0,Waxing Gibbous,55.0,3.3000000000000007,Good
San Marino,San Marino,43.93,12.45,Europe/Rome,1715868900.0,2024-05-16 16:15:00,20.0,Partly cloudy,22.0,100.0,E,1003.0,0.66,0.03,88.0,25.0,20.0,8.0,4.0,29.7,208.6,91.6,2.6,1.5,13.8,26.6,1.0,2.0,Waxing Gibbous,55.0,0.0,Good
Belgium,'S Gravenstaffel,50.88,2.98,Europe/Brussels,1715868900.0,2024-05-16 16:15:00,14.0,Overcast,13.0,260.0,W,1005.0,0.1,0.0,94.0,100.0,13.6,5.0,4.0,20.2,195.3,80.8,1.6,0.4,1.8,2.1,1.0,1.0,Waxing Gibbous,55.0,-0.40000000000000036,Good
Saudi Arabia,Riyadh,24.64,46.77,Asia/Riyadh,1715868900.0,2024-05-16 17:15:00,41.0,Sunny,15.1,200.0,SSW,1008.0,0.0,0.0,7.0,0.0,41.4,10.0,10.0,23.6,220.3,100.1,14.2,21.0,27.1,110.4,2.0,3.0,Waxing Gibbous,55.0,0.3999999999999986,Good
Senegal,Dakar,14.67,-17.44,Africa/Dakar,1715868900.0,2024-05-16 14:15:00,26.0,Partly cloudy,15.1,320.0,NW,1013.0,0.0,0.0,70.0,50.0,28.2,10.0,6.0,25.9,198.6,78.0,0.4,0.9,12.1,70.8,1.0,2.0,Waxing Gibbous,55.0,2.1999999999999993,Good
Serbia,Belgrade,44.8,20.47,Europe/Belgrade,1715868000.0,2024-05-16 16:00:00,20.0,Partly cloudy,42.8,120.0,ESE,1013.0,0.08,0.0,56.0,25.0,20.0,10.0,4.0,50.0,208.6,85.8,1.9,5.4,2.7,3.1,1.0,1.0,Waxing Gibbous,55.0,0.0,Good
Seychelles Islands,Victoria,-4.62,55.45,Indian/Mahe,1715868900.0,2024-05-16 18:15:00,28.0,Partly cloudy,11.2,310.0,NW,1008.0,1.99,0.08,84.0,50.0,32.8,10.0,7.0,34.1,243.7,41.5,0.2,0.3,2.0,5.9,1.0,1.0,Waxing Gibbous,55.0,4.799999999999997,Good
Sierra Leone,Freetown,8.49,-13.23,Africa/Freetown,1715868900.0,2024-05-16 14:15:00,29.0,Partly cloudy,16.9,240.0,WSW,1011.0,0.01,0.0,79.0,75.0,32.6,10.0,6.0,24.1,347.1,24.3,0.6,0.1,1.9,3.0,1.0,1.0,Waxing Gibbous,55.0,3.6000000000000014,Good
Singapore,Singapore,1.29,103.86,Asia/Singapore,1715868900.0,2024-05-16 22:15:00,27.0,Partly cloudy,3.6,80.0,E,1011.0,0.0,0.0,94.0,75.0,30.3,10.0,1.0,20.5,1842.5,0.0,30.2,51.0,19.0,23.6,2.0,2.0,Waxing Gibbous,55.0,3.3000000000000007,Good
Slovakia,Bratislava,48.15,17.12,Europe/Bratislava,1715868000.0,2024-05-16 16:00:00,17.0,Light rain,25.9,170.0,S,1013.0,0.01,0.0,72.0,75.0,17.0,10.0,4.0,39.7,193.6,88.7,2.0,1.1,1.7,2.0,1.0,1.0,Waxing Gibbous,55.0,0.0,Good
Slovenia,Ljubljana,46.06,14.51,Europe/Ljubljana,1715868900.0,2024-05-16 16:15:00,17.0,Partly cloudy,22.0,110.0,ESE,1009.0,0.64,0.03,72.0,75.0,17.0,10.0,3.0,29.2,200.3,66.5,2.5,0.6,1.6,1.9,1.0,1.0,Waxing Gibbous,55.0,0.0,Good
Solomon Islands,Honiara,-9.43,159.95,Pacific/Guadalcanal,1715868900.0,2024-05-17 01:15:00,25.8,Patchy rain nearby,14.0,131.0,SE,1010.0,0.14,0.01,89.0,85.0,29.1,10.0,1.0,20.3,212.0,26.5,0.6,0.3,0.5,0.6,1.0,1.0,Waxing Gibbous,55.0,3.3000000000000007,Good
Somalia,Mogadishu,2.07,45.37,Africa/Mogadishu,1715868900.0,2024-05-16 17:15:00,30.0,Partly cloudy,28.1,200.0,SSW,1010.0,0.21,0.01,75.0,50.0,36.9,10.0,6.0,41.1,247.0,37.2,0.1,0.2,4.1,10.9,1.0,1.0,Waxing Gibbous,55.0,6.899999999999999,Good
South Africa,Pretoria,-25.75,28.19,Africa/Johannesburg,1715868900.0,2024-05-16 16:15:00,26.0,Sunny,6.8,120.0,ESE,1027.0,0.0,0.0,23.0,0.0,24.5,10.0,8.0,12.0,367.2,111.6,12.2,41.5,23.0,39.3,2.0,2.0,Waxing Gibbous,55.0,-1.5,Good
South Korea,Seoul,37.57,127.0,Asia/Seoul,1715868900.0,2024-05-16 23:15:00,13.0,Clear,6.8,200.0,SSW,1011.0,0.0,0.0,88.0,0.0,12.6,10.0,1.0,12.6,821.1,0.0,94.6,22.2,21.1,25.7,2.0,2.0,Waxing Gibbous,55.0,-0.40000000000000036,Good
Sudan,Juba,12.15,24.45,Africa/Khartoum,1715868900.0,2024-05-16 16:15:00,37.5,Sunny,23.4,60.0,ENE,1008.0,0.0,0.0,7.0,9.0,36.4,10.0,9.0,26.9,175.2,90.8,0.1,0.1,23.8,118.7,2.0,2.0,Waxing Gibbous,55.0,-1.1000000000000014,Good
Spain,Madrid,40.4,-3.68,Europe/Madrid,1715868900.0,2024-05-16 16:15:00,18.0,Sunny,24.1,240.0,WSW,1009.0,0.0,0.0,39.0,0.0,18.0,10.0,5.0,31.3,183.6,88.0,2.8,0.1,0.5,0.9,1.0,1.0,Waxing Gibbous,55.0,0.0,Good
Sri Lanka,Colombo,6.93,79.85,Asia/Colombo,1715868900.0,2024-05-16 19:45:00,26.0,Moderate rain,6.1,20.0,NNE,1009.0,0.05,0.0,94.0,75.0,29.2,9.0,1.0,17.1,323.8,42.2,17.3,10.1,3.0,4.9,1.0,1.0,Waxing Gibbous,55.0,3.1999999999999993,Good
Sudan,Khartoum,15.59,32.53,Africa/Khartoum,1715868900.0,2024-05-16 16:15:00,38.4,Sunny,12.2,340.0,NNW,1007.0,0.0,0.0,6.0,4.0,37.6,10.0,9.0,14.1,210.3,134.5,0.9,1.9,17.6,75.5,2.0,2.0,Waxing Gibbous,55.0,-0.7999999999999972,Good
Suriname,Paramaribo,5.83,-55.17,America/Paramaribo,1715868900.0,2024-05-16 11:15:00,31.0,Partly cloudy,9.0,90.0,E,1012.0,0.01,0.0,75.0,50.0,35.7,10.0,7.0,10.4,212.0,31.1,0.1,0.1,1.4,2.3,1.0,1.0,Waxing Gibbous,55.0,4.700000000000003,Good
Sweden,Stockholm,59.33,18.05,Europe/Stockholm,1715868900.0,2024-05-16 16:15:00,22.0,Sunny,19.1,230.0,SW,1024.0,0.0,0.0,35.0,0.0,24.2,10.0,5.0,19.5,213.6,97.3,5.2,6.0,3.7,4.6,1.0,1.0,Waxing Gibbous,55.0,2.1999999999999993,Good
Switzerland,Bern,46.92,7.47,Europe/Zurich,1715868900.0,2024-05-16 16:15:00,12.0,Moderate rain,11.2,210.0,SSW,1006.0,0.41,0.02,100.0,100.0,12.5,10.0,3.0,18.4,200.3,84.4,2.1,0.7,1.1,1.2,1.0,1.0,Waxing Gibbous,55.0,0.5,Good
Syria,Damascus,33.5,36.3,Asia/Damascus,1715868900.0,2024-05-16 17:15:00,29.0,Sunny,22.0,300.0,WNW,1016.0,0.0,0.0,14.0,0.0,26.9,10.0,7.0,32.3,185.3,121.6,5.9,8.5,7.0,9.2,1.0,1.0,Waxing Gibbous,55.0,-2.1000000000000014,Good
Tajikistan,Dushanbe,38.56,68.77,Asia/Dushanbe,1715868900.0,2024-05-16 19:15:00,26.0,Patchy light rain with thunder,15.1,270.0,W,1015.0,0.01,0.0,54.0,50.0,27.4,10.0,4.0,15.1,207.0,66.5,0.8,2.0,5.0,9.5,1.0,1.0,Waxing Gibbous,55.0,1.3999999999999986,Good
Tanzania,Dodoma,-6.18,35.75,Africa/Dar_es_Salaam,1715868900.0,2024-05-16 17:15:00,28.0,Partly cloudy,11.2,160.0,SSE,1017.0,0.0,0.0,45.0,75.0,28.3,10.0,8.0,18.4,243.7,32.5,0.5,0.2,1.3,2.6,1.0,1.0,Waxing Gibbous,55.0,0.3000000000000007,Good
Thailand,Bangkok,13.75,100.52,Asia/Bangkok,1715868900.0,2024-05-16 21:15:00,30.0,Partly cloudy,11.2,170.0,S,1009.0,0.0,0.0,79.0,25.0,33.7,10.0,1.0,20.9,5714.4,0.0,61.7,69.6,150.8,212.3,5.0,10.0,Waxing Gibbous,55.0,3.700000000000003,Unhealthy
Timor-Leste,Dili,-8.56,125.57,Asia/Dili,1715868900.0,2024-05-16 23:15:00,25.8,Patchy rain nearby,10.1,152.0,SSE,1013.0,0.01,0.0,79.0,85.0,28.1,10.0,1.0,14.0,227.0,18.6,0.2,0.1,0.6,1.5,1.0,1.0,Waxing Gibbous,55.0,2.3000000000000007,Good
Bulgaria,Lom,43.81,23.24,Europe/Bucharest,1715868900.0,2024-05-16 17:15:00,19.0,Sunny,20.2,130.0,SE,1019.0,0.0,0.0,40.0,0.0,19.0,10.0,4.0,33.5,210.3,80.1,0.9,0.2,3.6,3.8,1.0,1.0,Waxing Gibbous,55.0,0.0,Good
Tonga,Nuku`Aloia,-21.13,-175.2,Pacific/Tongatapu,1715868900.0,2024-05-17 03:15:00,23.0,Light rain,19.1,130.0,SE,1017.0,2.29,0.09,94.0,100.0,25.3,8.0,1.0,57.8,217.0,38.6,0.0,0.1,2.2,6.4,1.0,1.0,Waxing Gibbous,55.0,2.3000000000000007,Good
Trinidad and Tobago,Port Of Spain,10.65,-61.52,America/Port_of_Spain,1715868000.0,2024-05-16 10:00:00,31.0,Overcast,19.1,100.0,E,1013.0,0.03,0.0,75.0,25.0,35.0,10.0,7.0,26.3,237.0,33.3,1.0,0.7,2.2,7.1,1.0,1.0,Waxing Gibbous,55.0,4.0,Good
Tunisia,Tunis,36.8,10.18,Africa/Tunis,1715868900.0,2024-05-16 15:15:00,27.0,Partly cloudy,20.2,330.0,NNW,1008.0,0.0,0.0,37.0,25.0,26.6,10.0,7.0,21.5,188.6,101.6,0.6,1.0,5.3,10.6,1.0,1.0,Waxing Gibbous,55.0,-0.3999999999999986,Good
Turkey,Ankara,39.93,32.86,Europe/Istanbul,1715868900.0,2024-05-16 17:15:00,21.0,Partly cloudy,19.1,280.0,W,1018.0,0.0,0.0,31.0,50.0,21.0,10.0,5.0,25.7,188.6,88.7,5.9,4.2,1.4,1.6,1.0,1.0,Waxing Gibbous,55.0,0.0,Good
Turkmenistan,Ashgabat,37.95,58.38,Asia/Ashgabat,1715868900.0,2024-05-16 19:15:00,18.0,Moderate or heavy rain with thunder,51.8,280.0,W,1016.0,0.08,0.0,100.0,60.0,18.0,0.4,5.0,59.0,303.8,79.4,10.5,6.1,7.5,15.8,1.0,1.0,Waxing Gibbous,55.0,0.0,Good
Tuvalu,Funafuti,-8.52,179.22,Pacific/Funafuti,1715868900.0,2024-05-17 02:15:00,28.0,Light rain,3.6,10.0,N,1007.0,1.99,0.08,84.0,100.0,32.1,10.0,1.0,28.9,208.6,24.7,0.0,0.0,0.5,0.8,1.0,1.0,Waxing Gibbous,55.0,4.100000000000001,Good
Uganda,Kampala,0.32,32.57,Africa/Kampala,1715868900.0,2024-05-16 17:15:00,26.0,Partly cloudy,13.0,190.0,S,1016.0,0.0,0.0,58.0,25.0,27.3,10.0,7.0,14.8,367.2,35.4,0.7,0.6,6.2,10.0,1.0,1.0,Waxing Gibbous,55.0,1.3000000000000007,Good
Ukraine,Kyiv,50.43,30.52,Europe/Kiev,1715868000.0,2024-05-16 17:00:00,14.6,Patchy rain nearby,9.0,96.0,E,1026.0,0.06,0.0,51.0,75.0,14.3,10.0,3.0,12.9,210.3,94.4,1.2,1.3,1.7,2.1,1.0,1.0,Waxing Gibbous,55.0,-0.29999999999999893,Good
United Arab Emirates,Abu Dhabi,24.47,54.37,Asia/Dubai,1715868900.0,2024-05-16 18:15:00,36.0,Sunny,13.0,340.0,NNW,1007.0,0.0,0.0,33.0,0.0,46.3,10.0,8.0,39.3,201.9,80.8,0.2,0.4,31.8,98.5,2.0,3.0,Waxing Gibbous,55.0,10.299999999999997,Good
United Kingdom,London,51.52,-0.11,Europe/London,1715868900.0,2024-05-16 15:15:00,15.0,Partly cloudy,11.2,200.0,SSW,1005.0,0.01,0.0,77.0,50.0,15.1,10.0,3.0,18.4,207.0,68.0,14.7,7.2,2.3,2.7,1.0,1.0,Waxing Gibbous,55.0,0.09999999999999964,Good
United States of America,Washington Park,46.6,-120.49,America/Los_Angeles,1715868900.0,2024-05-16 07:15:00,15.6,Sunny,37.1,300.0,WNW,1011.0,0.0,0.0,55.0,0.0,15.6,16.0,4.0,44.3,212.0,36.1,4.6,0.1,7.8,8.8,1.0,1.0,Waxing Gibbous,55.0,0.0,Good
Uruguay,Montevideo,-34.86,-56.17,America/Montevideo,1715868900.0,2024-05-16 11:15:00,12.0,Sunny,9.0,300.0,WNW,1014.0,0.0,0.0,71.0,0.0,10.4,10.0,5.0,19.2,961.3,3.9,18.7,17.4,21.1,35.3,2.0,2.0,Waxing Gibbous,55.0,-1.5999999999999996,Good
Uzbekistan,Tashkent,41.32,69.25,Asia/Tashkent,1715868000.0,2024-05-16 19:00:00,23.0,Sunny,22.0,260.0,W,1017.0,0.0,0.0,65.0,0.0,24.9,10.0,6.0,29.2,330.5,22.2,45.9,2.5,2.3,2.8,1.0,1.0,Waxing Gibbous,55.0,1.8999999999999986,Good
Vanuatu,Port Vila,-17.73,168.32,Pacific/Efate,1715868900.0,2024-05-17 01:15:00,23.0,Partly cloudy,6.8,110.0,ESE,1013.0,0.05,0.0,89.0,75.0,25.0,10.0,1.0,38.0,220.3,47.2,0.2,0.2,3.9,11.2,1.0,1.0,Waxing Gibbous,55.0,2.0,Good
Venezuela,Caracas,10.5,-66.92,America/Caracas,1715868900.0,2024-05-16 10:15:00,31.0,Partly cloudy,6.8,90.0,E,1013.0,0.0,0.0,66.0,25.0,35.9,10.0,7.0,14.0,323.8,40.1,11.3,27.9,4.9,6.8,1.0,1.0,Waxing Gibbous,55.0,4.899999999999999,Good
Vietnam,Hanoi,21.03,105.85,Asia/Bangkok,1715868900.0,2024-05-16 21:15:00,26.0,Clear,9.0,270.0,W,1013.0,0.0,0.0,84.0,0.0,28.2,10.0,1.0,19.6,3631.6,16.5,116.5,47.2,219.1,258.1,5.0,10.0,Waxing Gibbous,55.0,2.1999999999999993,Unhealthy
Yemen,Sanaa,15.35,44.21,Asia/Aden,1715868900.0,2024-05-16 17:15:00,26.2,Patchy rain nearby,15.5,60.0,ENE,1010.0,0.07,0.0,29.0,72.0,25.4,10.0,6.0,17.8,176.9,70.1,2.5,4.7,29.2,115.2,2.0,3.0,Waxing Gibbous,55.0,-0.8000000000000007,Good
Zambia,Lusaka,-15.42,28.28,Africa/Lusaka,1715868900.0,2024-05-16 16:15:00,24.2,Sunny,15.5,135.0,SE,1016.0,0.0,0.0,30.0,19.0,24.3,10.0,7.0,19.5,881.2,57.2,2.5,4.8,8.0,13.5,1.0,1.0,Waxing Gibbous,55.0,0.10000000000000142,Good
Zimbabwe,Harare,-17.82,31.04,Africa/Harare,1715868000.0,2024-05-16 16:00:00,22.9,Sunny,12.2,139.0,SE,1017.0,0.0,0.0,26.0,5.0,23.2,10.0,7.0,14.7,307.1,65.1,3.1,5.8,7.6,9.8,1.0,1.0,Waxing Gibbous,55.0,0.3000000000000007,Good
Afghanistan,Kabul,34.52,69.18,Asia/Kabul,1715961600.0,2024-05-17 20:30:00,15.0,Patchy rain nearby,5.4,17.0,NNE,1017.0,0.69,0.03,75.0,77.0,15.3,9.0,1.0,7.6,854.5,70.8,9.4,0.6,8.3,18.1,1.0,1.0,Waxing Gibbous,64.0,0.3000000000000007,Good
Albania,Tirana,41.33,19.82,Europe/Tirane,1715961600.0,2024-05-17 18:00:00,25.0,Sunny,6.8,320.0,NW,1013.0,0.0,0.0,61.0,0.0,27.0,10.0,6.0,7.6,217.0,52.9,12.2,0.6,18.7,56.2,2.0,2.0,Waxing Gibbous,64.0,2.0,Good
Algeria,Algiers,36.76,3.05,Africa/Algiers,1715961600.0,2024-05-17 17:00:00,25.0,Sunny,15.1,20.0,NNE,1010.0,0.0,0.0,30.0,0.0,25.7,10.0,6.0,16.2,290.4,147.3,23.3,4.7,11.7,20.4,1.0,1.0,Waxing Gibbous,64.0,0.6999999999999993,Good
Andorra,Andorra La Vella,42.5,1.52,Europe/Andorra,1715961600.0,2024-05-17 18:00:00,9.7,Thundery outbreaks in nearby,10.8,219.0,SW,1008.0,0.07,0.0,57.0,80.0,8.1,9.0,2.0,12.8,153.5,62.9,0.5,0.1,0.5,0.6,1.0,1.0,Waxing Gibbous,64.0,-1.5999999999999996,Good
Angola,Luanda,-8.84,13.23,Africa/Luanda,1715961600.0,2024-05-17 17:00:00,29.0,Sunny,24.1,260.0,W,1009.0,0.0,0.0,75.0,0.0,35.2,10.0,8.0,33.8,427.3,35.4,9.7,2.7,20.8,45.1,2.0,2.0,Waxing Gibbous,64.0,6.200000000000003,Good
Antigua and Barbuda,Saint John's,17.12,-61.85,America/Antigua,1715961600.0,2024-05-17 12:00:00,31.0,Overcast,20.2,90.0,E,1016.0,0.01,0.0,66.0,50.0,37.9,10.0,6.0,26.4,257.0,30.4,0.5,0.8,1.8,5.1,1.0,1.0,Waxing Gibbous,64.0,6.899999999999999,Good
Argentina,Buenos Aires,-34.59,-58.67,America/Argentina/Buenos_Aires,1715961600.0,2024-05-17 13:00:00,13.0,Partly cloudy,11.2,240.0,WSW,1019.0,0.01,0.0,67.0,25.0,12.0,10.0,4.0,13.7,293.7,41.8,3.0,1.9,2.3,3.5,1.0,1.0,Waxing Gibbous,64.0,-1.0,Good
Armenia,Yerevan,40.18,44.51,Asia/Yerevan,1715961600.0,2024-05-17 20:00:00,17.0,Partly cloudy,11.2,320.0,NW,1015.0,0.0,0.0,25.0,62.0,17.0,10.0,4.0,18.4,180.2,105.9,2.1,0.2,0.5,0.6,1.0,1.0,Waxing Gibbous,64.0,0.0,Good
Australia,Canberra,-35.28,149.22,Australia/Sydney,1715961600.0,2024-05-18 02:00:00,7.0,Overcast,9.0,150.0,SSE,1023.0,0.22,0.01,66.0,100.0,3.4,10.0,1.0,34.3,220.3,40.4,1.0,0.2,0.5,0.6,1.0,1.0,Waxing Gibbous,64.0,-3.6,Good
Austria,Vienna,48.2,16.37,Europe/Vienna,1715961600.0,2024-05-17 18:00:00,14.0,Light rain shower,6.8,360.0,N,1011.0,0.01,0.0,88.0,75.0,13.8,6.0,3.0,9.6,217.0,68.0,5.5,0.6,1.6,2.5,1.0,1.0,Waxing Gibbous,64.0,-0.1999999999999993,Good
Azerbaijan,Baku,40.4,49.88,Asia/Baku,1715961600.0,2024-05-17 20:00:00,14.0,Partly cloudy,29.9,320.0,NW,1017.0,0.0,0.0,72.0,25.0,11.4,10.0,1.0,52.2,213.6,85.1,2.6,0.3,1.0,1.2,1.0,1.0,Waxing Gibbous,64.0,-2.5999999999999996,Good
Bahamas,Nassau,25.08,-77.35,America/Nassau,1715961600.0,2024-05-17 12:00:00,32.0,Partly cloudy,15.1,290.0,WNW,1015.0,0.0,0.0,67.0,50.0,40.8,10.0,7.0,22.3,507.4,117.3,3.8,6.0,15.9,24.2,2.0,2.0,Waxing Gibbous,64.0,8.799999999999997,Good
Bahrain,Manama,26.24,50.58,Asia/Bahrain,1715961600.0,2024-05-17 19:00:00,32.0,Clear,15.1,90.0,E,1005.0,0.0,0.0,71.0,0.0,40.4,10.0,1.0,42.3,217.0,113.0,0.4,0.4,19.5,59.7,2.0,2.0,Waxing Gibbous,64.0,8.399999999999999,Good
Bangladesh,Dhaka,23.72,90.41,Asia/Dhaka,1715961600.0,2024-05-17 22:00:00,32.0,Clear,24.1,189.0,S,1004.0,0.0,0.0,62.0,6.0,37.7,10.0,1.0,34.4,574.1,50.8,11.5,3.9,20.0,30.1,2.0,2.0,Waxing Gibbous,64.0,5.700000000000003,Good
Barbados,Bridgetown,13.1,-59.62,America/Barbados,1715961600.0,2024-05-17 12:00:00,31.0,Partly cloudy,34.9,100.0,E,1014.0,0.01,0.0,75.0,75.0,38.3,10.0,6.0,42.1,247.0,32.2,1.0,2.1,2.3,11.0,1.0,1.0,Waxing Gibbous,64.0,7.299999999999997,Good
Belarus,Minsk,53.9,27.57,Europe/Minsk,1715961600.0,2024-05-17 19:00:00,22.0,Sunny,19.1,360.0,N,1018.0,0.0,0.0,41.0,0.0,24.6,10.0,5.0,19.3,230.3,62.9,10.1,1.5,4.2,4.8,1.0,1.0,Waxing Gibbous,64.0,2.6000000000000014,Good
Belgium,Brussels,50.83,4.33,Europe/Brussels,1715961600.0,2024-05-17 18:00:00,14.0,Light rain,13.0,290.0,WNW,1008.0,0.17,0.01,88.0,100.0,12.6,10.0,3.0,27.8,208.6,70.8,10.5,2.8,1.2,1.7,1.0,1.0,Waxing Gibbous,64.0,-1.4000000000000004,Good
Belize,Belmopan,17.25,-88.77,America/Belize,1715961600.0,2024-05-17 10:00:00,32.0,Partly cloudy,9.0,140.0,SE,1008.0,0.0,0.0,80.0,25.0,33.2,8.0,9.0,16.2,303.8,45.8,0.4,0.3,9.9,21.6,1.0,1.0,Waxing Gibbous,64.0,1.2000000000000028,Good
Benin,Porto-Novo,6.48,2.62,Africa/Porto-Novo,1715961600.0,2024-05-17 17:00:00,32.0,Partly cloudy,15.1,220.0,SW,1010.0,0.0,0.0,71.0,25.0,41.6,10.0,7.0,15.9,407.2,16.8,2.3,1.3,2.6,5.5,1.0,1.0,Waxing Gibbous,64.0,9.600000000000001,Good
Bhutan,Thimphu,27.48,89.6,Asia/Thimphu,1715961600.0,2024-05-17 22:00:00,10.5,Patchy rain nearby,4.3,254.0,WSW,1017.0,0.01,0.0,93.0,71.0,10.6,10.0,1.0,7.4,370.5,70.1,1.2,1.0,15.8,18.4,2.0,2.0,Waxing Gibbous,64.0,0.09999999999999964,Good
Bolivia,Sucre,-19.04,-65.26,America/La_Paz,1715961600.0,2024-05-17 12:00:00,18.9,Sunny,13.0,35.0,NE,1010.0,0.0,0.0,50.0,7.0,18.9,10.0,6.0,14.9,240.3,73.7,1.0,1.2,5.7,9.7,1.0,1.0,Waxing Gibbous,64.0,0.0,Good
Bosnia and Herzegovina,Sarajevo,43.85,18.38,Europe/Sarajevo,1715961600.0,2024-05-17 18:00:00,25.0,Sunny,22.0,260.0,W,1011.0,0.09,0.0,36.0,0.0,26.9,10.0,4.0,29.2,195.3,83.0,1.1,3.6,10.5,21.7,1.0,1.0,Waxing Gibbous,64.0,1.8999999999999986,Good
Botswana,Gaborone,-24.65,25.91,Africa/Gaborone,1715961600.0,2024-05-17 18:00:00,30.0,Clear,3.6,73.0,ENE,1022.0,0.0,0.0,21.0,0.0,28.0,10.0,1.0,3.8,801.1,35.8,45.2,4.2,19.6,32.8,2.0,2.0,Waxing Gibbous,64.0,-2.0,Good
Brazil,Bras,-2.08,-58.17,America/Manaus,1715961600.0,2024-05-17 12:00:00,29.6,Light rain shower,5.8,83.0,E,1011.0,1.15,0.05,79.0,88.0,35.8,10.0,7.0,10.5,270.4,9.2,0.1,0.1,0.5,0.5,1.0,1.0,Waxing Gibbous,64.0,6.199999999999996,Good
Brunei Darussalam,Bandar Seri Begawan,4.88,114.93,Asia/Brunei,1715961600.0,2024-05-18 00:00:00,27.0,Partly cloudy,9.0,200.0,SSW,1010.0,0.0,0.0,100.0,75.0,31.6,10.0,1.0,10.1,440.6,1.1,6.5,1.8,2.1,2.4,1.0,1.0,Waxing Gibbous,64.0,4.600000000000001,Good
Bulgaria,Sofia,42.68,23.32,Europe/Sofia,1715961600.0,2024-05-17 19:00:00,17.0,Partly cloudy,15.1,150.0,SSE,1017.0,0.0,0.0,63.0,25.0,17.0,10.0,4.0,19.3,237.0,78.0,3.9,0.7,7.6,11.7,1.0,1.0,Waxing Gibbous,64.0,0.0,Good
Burkina Faso,Ouagadougou,12.37,-1.52,Africa/Ouagadougou,1715961600.0,2024-05-17 16:00:00,38.9,Partly Cloudy,4.3,355.0,N,1007.0,0.0,0.0,26.0,28.0,40.2,10.0,9.0,5.0,347.1,27.9,0.9,0.5,23.7,107.5,2.0,2.0,Waxing Gibbous,64.0,1.3000000000000043,Good
Burundi,Bujumbura,-3.38,29.36,Africa/Bujumbura,1715961600.0,2024-05-17 18:00:00,18.6,Partly cloudy,37.1,180.0,S,1013.0,0.83,0.03,84.0,50.0,18.6,10.0,1.0,44.3,357.2,32.2,1.6,0.4,5.0,13.6,1.0,1.0,Waxing Gibbous,64.0,0.0,Good
Madagascar,Ivory,-24.37,46.45,Indian/Antananarivo,1715961600.0,2024-05-17 19:00:00,23.7,Clear,5.4,65.0,ENE,1016.0,0.0,0.0,57.0,5.0,25.3,10.0,1.0,11.3,207.0,28.6,0.3,0.1,0.5,1.0,1.0,1.0,Waxing Gibbous,64.0,1.6000000000000014,Good
Cape Verde,Praia,14.93,-23.51,Atlantic/Cape_Verde,1715961600.0,2024-05-17 15:00:00,28.0,Partly cloudy,24.1,20.0,NNE,1014.0,0.0,0.0,48.0,25.0,30.6,10.0,6.0,31.3,188.6,70.1,0.1,0.3,3.4,14.0,1.0,1.0,Waxing Gibbous,64.0,2.6000000000000014,Good
Cambodia,Phnom Penh,11.55,104.92,Asia/Phnom_Penh,1715961600.0,2024-05-17 23:00:00,30.0,Partly cloudy,3.6,170.0,S,1009.0,0.0,0.0,79.0,50.0,33.3,10.0,1.0,14.5,1094.8,14.3,17.1,4.1,30.6,42.5,2.0,3.0,Waxing Gibbous,64.0,3.299999999999997,Good
Cameroon,Yaounde,3.87,11.52,Africa/Douala,1715961600.0,2024-05-17 17:00:00,32.0,Partly cloudy,3.6,305.0,NW,1013.0,0.81,0.03,56.0,75.0,48.8,7.0,5.0,8.8,373.8,9.2,1.7,0.6,4.3,6.8,1.0,1.0,Waxing Gibbous,64.0,16.799999999999997,Good
Canada,Ottawa,45.42,-75.7,America/Toronto,1715961600.0,2024-05-17 12:00:00,20.0,Partly cloudy,9.0,80.0,E,1014.0,0.0,0.0,78.0,75.0,20.0,24.0,6.0,14.5,230.3,85.1,4.3,3.1,3.2,3.9,1.0,1.0,Waxing Gibbous,64.0,0.0,Good
Central African Republic,Bangui,4.37,18.58,Africa/Bangui,1715961600.0,2024-05-17 17:00:00,34.0,Partly cloudy,6.8,170.0,S,1007.0,0.37,0.01,56.0,50.0,40.9,10.0,6.0,14.0,293.7,0.9,0.1,0.0,0.5,0.9,1.0,1.0,Waxing Gibbous,64.0,6.899999999999999,Good
Chad,N'djamena,12.11,15.05,Africa/Douala,1715961600.0,2024-05-17 17:00:00,42.0,Overcast,22.0,60.0,ENE,1006.0,0.0,0.0,5.0,0.0,43.0,2.5,10.0,32.1,220.3,70.1,0.6,0.4,32.1,146.8,2.0,3.0,Waxing Gibbous,64.0,1.0,Good
Chile,Santiago,-33.45,-70.67,America/Santiago,1715961600.0,2024-05-17 12:00:00,9.0,Partly cloudy,6.1,110.0,ESE,1021.0,0.06,0.0,57.0,25.0,7.7,10.0,4.0,9.9,2616.9,163.1,56.2,71.5,220.0,264.2,5.0,10.0,Waxing Gibbous,64.0,-1.2999999999999998,Unhealthy
China,Beijing,39.93,116.39,Asia/Shanghai,1715961600.0,2024-05-18 00:00:00,24.0,Clear,19.1,150.0,SSE,1007.0,0.0,0.0,50.0,0.0,25.0,10.0,1.0,26.3,1442.0,0.0,111.0,52.9,221.9,265.9,5.0,10.0,Waxing Gibbous,64.0,1.0,Unhealthy
Bulgaria,Bogot,43.32,24.7,Europe/Sofia,1715961600.0,2024-05-17 19:00:00,16.7,Cloudy,15.5,66.0,ENE,1016.0,0.0,0.0,76.0,65.0,16.7,10.0,4.0,24.4,205.3,88.0,1.1,0.3,3.7,4.7,1.0,1.0,Waxing Gibbous,64.0,0.0,Good
Comoros,Moroni,-11.7,43.24,Indian/Comoro,1715961600.0,2024-05-17 19:00:00,25.6,Clear,22.7,148.0,SSE,1014.0,0.0,0.0,82.0,5.0,28.0,10.0,1.0,26.2,247.0,50.8,0.5,0.3,1.8,6.9,1.0,1.0,Waxing Gibbous,64.0,2.3999999999999986,Good
Congo,Brazzaville,-4.26,15.28,Africa/Brazzaville,1715961600.0,2024-05-17 17:00:00,32.0,Mist,3.6,238.0,WSW,1010.0,0.0,0.0,59.0,25.0,37.1,7.0,8.0,10.4,741.0,23.3,15.1,4.2,16.8,44.4,2.0,2.0,Waxing Gibbous,64.0,5.100000000000001,Good
Costa Rica,San Juan,9.97,-84.08,America/Costa_Rica,1715961600.0,2024-05-17 10:00:00,26.0,Partly cloudy,6.1,320.0,NW,1019.0,1.05,0.04,65.0,75.0,28.2,10.0,6.0,13.3,714.3,20.4,45.2,32.9,50.5,51.4,3.0,6.0,Waxing Gibbous,64.0,2.1999999999999993,Moderate
Croatia,Zagreb,45.8,16.0,Europe/Zagreb,1715961600.0,2024-05-17 18:00:00,23.0,Sunny,25.9,230.0,SW,1010.0,0.0,0.0,41.0,0.0,24.8,10.0,5.0,33.1,207.0,84.4,4.6,0.1,1.9,2.7,1.0,1.0,Waxing Gibbous,64.0,1.8000000000000007,Good
Cuba,Havana,23.13,-82.36,America/Havana,1715961600.0,2024-05-17 12:00:00,31.0,Partly cloudy,19.1,190.0,S,1014.0,0.02,0.0,59.0,50.0,34.9,9.0,7.0,29.8,323.8,45.1,5.4,23.6,2.3,6.5,1.0,1.0,Waxing Gibbous,64.0,3.8999999999999986,Good
Cyprus,Nicosia,35.17,33.37,Asia/Famagusta,1715961600.0,2024-05-17 19:00:00,24.0,Sunny,24.1,210.0,SSW,1016.0,0.0,0.0,69.0,0.0,24.9,10.0,6.0,24.3,195.3,97.3,0.8,1.2,7.1,15.4,1.0,1.0,Waxing Gibbous,64.0,0.8999999999999986,Good
Czech Republic,Prague,50.08,14.47,Europe/Prague,1715961600.0,2024-05-17 18:00:00,13.0,Light rain,19.1,120.0,ESE,1009.0,0.0,0.0,94.0,75.0,12.5,8.0,3.0,26.3,233.7,68.0,8.7,2.7,3.0,3.5,1.0,1.0,Waxing Gibbous,64.0,-0.5,Good
Democratic Republic of Congo,Kinshasa,-4.3,15.3,Africa/Brazzaville,1715961600.0,2024-05-17 17:00:00,32.0,Mist,3.6,238.0,WSW,1010.0,0.0,0.0,59.0,25.0,37.7,7.0,8.0,11.1,741.0,23.3,15.1,4.2,16.8,44.4,2.0,2.0,Waxing Gibbous,64.0,5.700000000000003,Good
Denmark,Copenhagen,55.67,12.58,Europe/Copenhagen,1715961600.0,2024-05-17 18:00:00,19.0,Sunny,25.9,80.0,E,1016.0,0.0,0.0,37.0,0.0,19.0,10.0,5.0,44.2,210.3,100.1,3.0,2.0,5.5,6.1,1.0,1.0,Waxing Gibbous,64.0,0.0,Good
Djibouti,Djibouti,11.6,43.15,Africa/Djibouti,1715961600.0,2024-05-17 19:00:00,31.1,Clear,15.5,87.0,E,1006.0,0.0,0.0,76.0,9.0,39.4,10.0,1.0,19.6,300.4,59.4,1.8,1.0,11.5,23.7,1.0,1.0,Waxing Gibbous,64.0,8.299999999999997,Good
